siren,url_pappers,site_web,adress,lat,lon
301512489,https://www.pappers.fr/recherche?q=301512489,Non disponible,17 RUE JULES GUESDE 33270 FLOIRAC,,
301859666,https://www.pappers.fr/recherche?q=301859666,Non disponible,RUE DE LA GRANDE FONTAINE 33330 SAINT-EMILION,44.892541,-0.156494
301903910,https://www.pappers.fr/recherche?q=301903910,Non renseigné,72 RUE DELALANDE 33500 LIBOURNE,44.915817,-0.23011
303922660,https://www.pappers.fr/recherche?q=303922660,https://elan.miossais.free.fr/,69 AVENUE DE LA LIBERATION 33380 MIOS,44.603285,-0.928134
305433534,https://www.pappers.fr/recherche?q=305433534,Non renseigné,6 PLACE DE LA REPUBLIQUE 33540 SAUVETERRE-DE-GUYENNE,44.692654,-0.085957
309956787,https://www.pappers.fr/recherche?q=309956787,Non renseigné,"98, B AVENUE GEORGES CLEMENCEAU 33400 TALENCE",44.803413,-0.597146
309992626,https://www.pappers.fr/recherche?q=309992626,Non renseigné,CENTRE COMMERCIAL CHOISY LATOUR  CENTRE COMMERCIAL DE CHOIS 33610 CESTAS,44.739301,-0.680455
311041156,https://www.pappers.fr/recherche?q=311041156,Non renseigné,"35, B RUE SAINT-FRANCOIS 33000 BORDEAUX",44.834366,-0.569069
311938880,https://www.pappers.fr/recherche?q=311938880,Non renseigné,16 RUE EDMOND COSTEDOAT 33000 BORDEAUX,44.831406,-0.577966
314837907,https://www.pappers.fr/recherche?q=314837907,Non renseigné,8 ALLEE FABELLE 33200 BORDEAUX,44.84928,-0.609655
317702256,https://www.pappers.fr/recherche?q=317702256,Non renseigné,24 AVENUE SAINT PAULIN 33130 BEGLES,44.80428,-0.561089
319986592,https://www.pappers.fr/recherche?q=319986592,Non renseigné,22 LOTISSEMENT MARTY 33750 BEYCHAC-ET-CAILLAU,44.871553,-0.378047
320196363,https://www.pappers.fr/recherche?q=320196363,Non renseigné,18 AVENUE DES DRAGONS DE L'IMPERATRICE 33127 MARTIGNAS-SUR-JALLE,44.840096,-0.768236
321144982,https://www.pappers.fr/recherche?q=321144982,Non renseigné,8 ROUTE DE LESPARRE 33930 VENDAYS-MONTALIVET,45.357508,-1.057047
321307001,https://www.pappers.fr/recherche?q=321307001,Non renseigné,6 COURS DU PORT 33390 BLAYE,45.126,-0.663852
323015933,https://www.pappers.fr/recherche?q=323015933,Non renseigné,6 COURS DU PORT 33390 BLAYE,45.126,-0.663852
323484063,https://www.pappers.fr/recherche?q=323484063,Non renseigné,255 RUE PIERRE BROSSOLETTE 33230 COUTRAS,45.039844,-0.130606
323520957,https://www.pappers.fr/recherche?q=323520957,Non renseigné,240 AVENUE DE LA REPUBLIQUE 33000 BORDEAUX,44.840397,-0.59597
324423565,https://www.pappers.fr/recherche?q=324423565,Non renseigné,7 RUE BONTEMPS 33400 TALENCE,44.803837,-0.579828
324504554,https://www.pappers.fr/recherche?q=324504554,Non renseigné,76 RUE FAMATINA 33200 BORDEAUX,44.845284,-0.603631
324982560,https://www.pappers.fr/recherche?q=324982560,Non renseigné,1 LIEU DIT BLANCHERIE 33230 MARANSIN,45.082079,-0.276747
325270460,https://www.pappers.fr/recherche?q=325270460,Non renseigné,33820 BRAUD-ET-SAINT-LOUIS,45.249016,-0.63195
325809010,https://www.pappers.fr/recherche?q=325809010,Non renseigné,165 AV DE LA LIBERATION 33110 LE BOUSCAT,44.861115,-0.600358
325848216,https://www.pappers.fr/recherche?q=325848216,Non renseigné,15 RUE PIERRE GEMIN 33490 CAUDROT,44.577888,-0.141308
326453321,https://www.pappers.fr/recherche?q=326453321,Non renseigné,5 RUE MARGAUX 33000 BORDEAUX,44.84056,-0.574588
326722006,https://www.pappers.fr/recherche?q=326722006,Non renseigné,2 AVENUE DU MAHON 33190 LA REOLE,44.583202,-0.031322
327564852,https://www.pappers.fr/recherche?q=327564852,Non renseigné,15 RUE EDOUARD LALANNE 33260 LA TESTE-DE-BUCH,44.627597,-1.145458
328288014,https://www.pappers.fr/recherche?q=328288014,Non renseigné,8 RUE PAUL BERT 33530 BASSENS,44.900658,-0.516645
329329478,https://www.pappers.fr/recherche?q=329329478,Non renseigné,73 COURS DE LA MARTINIQUE 33000 BORDEAUX,44.854813,-0.573252
329612964,https://www.pappers.fr/recherche?q=329612964,Non renseigné,349 AVENUE D'EYSINES 33110 LE BOUSCAT,44.86078,-0.613292
330785882,https://www.pappers.fr/recherche?q=330785882,Non renseigné,6 CHEMIN DES TEMPLIERS 33450 SAINT-LOUBES,44.934584,-0.463269
330904194,https://www.pappers.fr/recherche?q=330904194,Non renseigné,LE BOURG 2 RESIDENCE LA PRAIRIE 33112 SAINT-LAURENT-MEDOC,45.148011,-0.823858
331181875,https://www.pappers.fr/recherche?q=331181875,Non renseigné,RTE NATIONALE 33820 ETAULIERS,45.223576,-0.573284
332647213,https://www.pappers.fr/recherche?q=332647213,Non renseigné,24 ROUTE DE BORDEAUX 33760 TARGON,44.740878,-0.27166
332917525,https://www.pappers.fr/recherche?q=332917525,Non renseigné,6 ALLEE DU BERRY 33510 ANDERNOS-LES-BAINS,44.733413,-1.070365
332970193,https://www.pappers.fr/recherche?q=332970193,Non renseigné,39 ROUTE DE LA GARENGUE 33210 PREIGNAC,44.588724,-0.300358
333182384,https://www.pappers.fr/recherche?q=333182384,https://atelierdecoupe.com/,CTRE CIAL SAIGE FORMANOIR  RUE DE L'HORLOGE 33600 PESSAC,44.791135,-0.629573
333206993,https://www.pappers.fr/recherche?q=333206993,Non renseigné,5 LD LE LUGAT 33125 SAINT-MAGNE,44.527196,-0.657608
333310183,https://www.pappers.fr/recherche?q=333310183,Non renseigné,107 RUE ABBE DE L'EPEE 33000 BORDEAUX,44.84484,-0.583838
333765378,https://www.pappers.fr/recherche?q=333765378,Non renseigné,20 AV DU MAL DE LATTRE DE TASSIGNY 33470 GUJAN-MESTRAS,44.639028,-1.115044
334033156,https://www.pappers.fr/recherche?q=334033156,Non renseigné,39 RUE CHANZY 33500 LIBOURNE,44.916216,-0.237847
334114071,https://www.pappers.fr/recherche?q=334114071,Non renseigné,93 RUE MONDENARD 33000 BORDEAUX,44.84653,-0.589922
334293172,https://www.pappers.fr/recherche?q=334293172,Non renseigné,RES PLEIN SOLEIL 40 RUE DE CHAMBERY 33140 VILLENAVE-D'ORNON,44.763935,-0.565484
334405644,https://www.pappers.fr/recherche?q=334405644,Non renseigné,RES PHEDRE APP 506 ENT B  RUE HENRI DE TOULOUSE LAUTREC 33400 TALENCE,44.792118,-0.587885
334759750,https://www.pappers.fr/recherche?q=334759750,Non renseigné,298 ROUTE DE L??ECLOP 33390 EYRANS,45.187528,-0.609429
334903390,https://www.pappers.fr/recherche?q=334903390,Non renseigné,1200 CHEMIN DE PEYROT 33240 SAINT-ANDRE-DE-CUBZAC,45.005966,-0.469179
335191839,https://www.pappers.fr/recherche?q=335191839,Non renseigné,46 RUE MARC TALLAVI 33310 LORMONT,44.87874,-0.525441
335191839,https://www.pappers.fr/recherche?q=335191839,Non renseigné,34 RUE MARC TALLAVI 33310 LORMONT,44.878418,-0.525718
335210936,https://www.pappers.fr/recherche?q=335210936,Non renseigné,46 RUE MARC TALLAVI 33310 LORMONT,44.87874,-0.525441
337522320,https://www.pappers.fr/recherche?q=337522320,Non renseigné,24 LIEU DIT JEAN LARC 33420 LUGAIGNAC,44.813189,-0.197421
337543201,https://www.pappers.fr/recherche?q=337543201,Non renseigné,40 RUE DU PIN FRANC 33210 TOULENNE,44.553581,-0.2638
338335573,https://www.pappers.fr/recherche?q=338335573,Non renseigné,PORTE 27 18 RUE DES FRAISIERS CLOS MASCARET 33240 SAINT-GERVAIS,45.027179,-0.449714
338350820,https://www.pappers.fr/recherche?q=338350820,Non renseigné,RUE JEAN ACHARD 33230 ABZAC,45.014551,-0.127816
338414394,https://www.pappers.fr/recherche?q=338414394,Non renseigné,24 RUE DU 8 MAI 1945 33640 PORTETS,44.692096,-0.423665
338711922,https://www.pappers.fr/recherche?q=338711922,Non renseigné,7 IMPASSE DE VALENTIN 33470 GUJAN-MESTRAS,44.623686,-1.070255
338831746,https://www.pappers.fr/recherche?q=338831746,Non renseigné,1 ALLEE PETITE SAVOIE 33140 VILLENAVE-D'ORNON,44.76947,-0.579226
338864572,https://www.pappers.fr/recherche?q=338864572,Non renseigné,GAL MARCH AUCHAN LE LAC  AVENUE ANDRE REINSON 33300 BORDEAUX,44.878213,-0.571602
339698607,https://www.pappers.fr/recherche?q=339698607,Non renseigné,RES LE FORUM  RUE DE TANAYS 33185 LE HAILLAN,44.86788,-0.674615
340549435,https://www.pappers.fr/recherche?q=340549435,Non renseigné,8 RUE DE LA POSTE 33990 HOURTIN,45.186647,-1.058162
340805076,https://www.pappers.fr/recherche?q=340805076,Non renseigné,7 LOTISSEMENT DU PRE D??AUDON 33670 LA SAUVE,44.76236,-0.315525
341056976,https://www.pappers.fr/recherche?q=341056976,Non renseigné,51 COURS LAMARQUE DE PLAISANCE 33120 ARCACHON,44.661305,-1.172895
341311850,https://www.pappers.fr/recherche?q=341311850,Non renseigné,9 AVENUE DE L??ENTRE DEUX MERS 33370 POMPIGNAC,44.849764,-0.43965
341769263,https://www.pappers.fr/recherche?q=341769263,Non renseigné,2 RUE FENELON 33000 BORDEAUX,44.842777,-0.578692
342480597,https://www.pappers.fr/recherche?q=342480597,Non renseigné,32 AVENUE DE SAINT-MEDARD 33700 MERIGNAC,44.861042,-0.641366
342980737,https://www.pappers.fr/recherche?q=342980737,Non renseigné,24 PLACE GAMBETTA 33000 BORDEAUX,44.84047,-0.581205
343161204,https://www.pappers.fr/recherche?q=343161204,Non renseigné,6 RUE DES MOUETTES 33160 SAINT-AUBIN-DE-MEDOC,44.917297,-0.729432
343304358,https://www.pappers.fr/recherche?q=343304358,Non renseigné,10 BERANGER 33580 NEUFFONS,44.651333,0.005578
343323937,https://www.pappers.fr/recherche?q=343323937,Non renseigné,ETAGE 00 16 CHEMIN DE TERREFORT 33240 SAINT-ANDRE-DE-CUBZAC,44.990404,-0.453981
343528758,https://www.pappers.fr/recherche?q=343528758,https://apparenceetseduction.wixsite.com/,31 RUE MARECHAL GALLIENI 33200 BORDEAUX,44.841057,-0.622905
344155122,https://www.pappers.fr/recherche?q=344155122,Non renseigné,42 AVENUE VICTOR HUGO 33530 BASSENS,44.905907,-0.511353
344172721,https://www.pappers.fr/recherche?q=344172721,Non renseigné,5 PLACE DE LA CITADELLE 33390 BLAYE,45.126365,-0.663544
345146252,https://www.pappers.fr/recherche?q=345146252,Non renseigné,474 AVENUE DE VERDUN 33700 MERIGNAC,44.841343,-0.644757
345157994,https://www.pappers.fr/recherche?q=345157994,https://rev-look.fr/,12 RUE JENNY LEPREUX 33000 BORDEAUX,44.83251,-0.611606
345199939,https://www.pappers.fr/recherche?q=345199939,Non renseigné,"7, B CHEMIN DE GALARD 33760 CESSAC",44.739383,-0.180164
347660912,https://www.pappers.fr/recherche?q=347660912,Non renseigné,11 RUE DE L'EGLISE 33410 BEGUEY,44.646627,-0.330181
347993206,https://www.pappers.fr/recherche?q=347993206,Non renseigné,LA FOUGERE 33390 CARS,45.121323,-0.61585
347993206,https://www.pappers.fr/recherche?q=347993206,Non renseigné,9 LE COUDEAU 33390 CARS,45.117747,-0.619458
348048901,https://www.pappers.fr/recherche?q=348048901,Non renseigné,1 COURS DE LA LIBERATION 33000 BORDEAUX,44.83343,-0.584475
348544537,https://www.pappers.fr/recherche?q=348544537,Non renseigné,3 CHEMIN DU TRONC 33380 BIGANOS,44.667519,-0.99136
348638875,https://www.pappers.fr/recherche?q=348638875,Non renseigné,22 RUE DU CENTRE 33250 SAINT-SAUVEUR,45.202317,-0.834895
348667130,https://www.pappers.fr/recherche?q=348667130,Non renseigné,5 AVENUE DU MARECHAL LECLERC 33140 VILLENAVE-D'ORNON,44.781414,-0.56797
349023028,https://www.pappers.fr/recherche?q=349023028,Non renseigné,LEOGNAN,44.718997,-0.60521
349281006,https://www.pappers.fr/recherche?q=349281006,Non renseigné,8 RUE PIERRE DE BRACH 33450 MONTUSSAN,44.881928,-0.431625
349631531,https://www.pappers.fr/recherche?q=349631531,Non renseigné,40 COURS DES FOSSES 33210 LANGON,44.555596,-0.248174
349640078,https://www.pappers.fr/recherche?q=349640078,Non renseigné,21 CHEMIN DES ARROUILS 33430 BAZAS,44.434631,-0.249396
349711911,https://www.pappers.fr/recherche?q=349711911,Non renseigné,ROUTE DE L??ARUAN 33640 BEAUTIRAN,44.704638,-0.454291
349871319,https://www.pappers.fr/recherche?q=349871319,Non renseigné,70 DOMAINE DU BOIS DE CHARTRES 33760 TARGON,44.747775,-0.286068
350311957,https://www.pappers.fr/recherche?q=350311957,Non renseigné,ROUTE DE TARGON 33550 PAILLET,44.68787,-0.359912
350462743,https://www.pappers.fr/recherche?q=350462743,Non renseigné,RES LE SULKY  BAT 5   APPT 81 55 AVENUE DE L'HIPPODROME 33320 EYSINES,44.87472,-0.627128
350720629,https://www.pappers.fr/recherche?q=350720629,Non renseigné,4 LD MEOU 33690 SENDETS,44.428725,-0.088863
350801585,https://www.pappers.fr/recherche?q=350801585,Non renseigné,"3, B RUE DE NAUJAC 33930 VENDAYS-MONTALIVET",45.378046,-1.154195
350992848,https://www.pappers.fr/recherche?q=350992848,Non renseigné,258 COURS DE LA SOMME 33800 BORDEAUX,44.820847,-0.572323
351003579,https://www.pappers.fr/recherche?q=351003579,Non renseigné,CTRE CIAL LA GRAVETTE  LA GRAVETTE 33270 FLOIRAC,44.838999,-0.537303
351153952,https://www.pappers.fr/recherche?q=351153952,Non renseigné,20 COURS GEORGES CLEMENCEAU 33000 BORDEAUX,44.8425,-0.579339
351669338,https://www.pappers.fr/recherche?q=351669338,Non renseigné,12 AVENUE DE CHAVAILLES 33520 BRUGES,44.87503,-0.579521
351768395,https://www.pappers.fr/recherche?q=351768395,Non renseigné,LD LES GRANGES N 1 33350 PUJOLS,44.811512,-0.045496
351794722,https://www.pappers.fr/recherche?q=351794722,Non renseigné,33 PLACE ERNEST BARRAUD 33230 COUTRAS,45.040079,-0.130011
351866793,https://www.pappers.fr/recherche?q=351866793,Non renseigné,15 AVENUE DU GENERAL DE GAULLE 33350 SAINT-MAGNE-DE-CASTILLON,44.860389,-0.057874
351926936,https://www.pappers.fr/recherche?q=351926936,https://commedescoiffeurs.fr/,89 RUE NOTRE DAME 33000 BORDEAUX,44.852486,-0.570711
352155022,https://www.pappers.fr/recherche?q=352155022,Non renseigné,CTRE CCIAL CHAMPION  RUE JULES FERRY 33350 CASTILLON-LA-BATAILLE,44.85312,-0.045533
352168942,https://www.pappers.fr/recherche?q=352168942,Non renseigné,15 BOULEVARD DE LA PLAGE 33120 ARCACHON,44.657319,-1.148391
352462501,https://www.pappers.fr/recherche?q=352462501,Non renseigné,122 COURS MARECHAL JUIN 33000 BORDEAUX,44.8343,-0.58838
352462501,https://www.pappers.fr/recherche?q=352462501,Non renseigné,4 RUE DE L'EGLISE 33200 BORDEAUX,44.85187,-0.614232
353125495,https://www.pappers.fr/recherche?q=353125495,Non renseigné,144 RUE PASTEUR 33200 BORDEAUX,44.844685,-0.609348
353532773,https://www.pappers.fr/recherche?q=353532773,Non renseigné,181 AVENUE VICTOR HUGO 33110 LE BOUSCAT,44.868385,-0.591538
353804834,https://www.pappers.fr/recherche?q=353804834,https://ht-createur.com/,69 RUE VICTOR BILLON 33110 LE BOUSCAT,44.856421,-0.599259
354011751,https://www.pappers.fr/recherche?q=354011751,Non renseigné,52 AVENUE DU VALLON 33700 MERIGNAC,44.81854,-0.624042
377671664,https://www.pappers.fr/recherche?q=377671664,Non renseigné,15 RUE DU MOULINEAU 33170 GRADIGNAN,44.770687,-0.608212
377680400,https://www.pappers.fr/recherche?q=377680400,https://salon-coiffure-dominique.fr/,"5, B AVENUE DE LA PLAGE 33740 ARES",44.766303,-1.140797
377680400,https://www.pappers.fr/recherche?q=377680400,https://salon-coiffure-dominique.fr/,71 BOULEVARD DE LA REPUBLIQUE 33510 ANDERNOS-LES-BAINS,44.737131,-1.089079
377705470,https://www.pappers.fr/recherche?q=377705470,Non renseigné,39 AVENUE THIERS 33100 BORDEAUX,44.847748,-0.550925
378127088,https://www.pappers.fr/recherche?q=378127088,Non renseigné,154 RUE NATIONALE 33240 SAINT-ANDRE-DE-CUBZAC,44.994929,-0.44639
378486336,https://www.pappers.fr/recherche?q=378486336,Non renseigné,CENTRE COMMERCIAL LA BENAUGE 33 RUE ALEXANDER FLEMING 33100 BORDEAUX,44.843143,-0.542713
378825434,https://www.pappers.fr/recherche?q=378825434,Non renseigné,RESIDENCE LE PORT DU ROY 20 RUE CHARLES GOUNOD 33290 BLANQUEFORT,44.90901,-0.616642
378885263,https://www.pappers.fr/recherche?q=378885263,Non renseigné,8 AVENUE DE MERCADE 33880 SAINT-CAPRAIS-DE-BORDEAUX,44.750501,-0.440804
379810997,https://www.pappers.fr/recherche?q=379810997,Non renseigné,71 AVENUE AUSTIN CONTE 33560 CARBON-BLANC,44.89545,-0.499301
379861115,https://www.pappers.fr/recherche?q=379861115,Non renseigné,CTRE CIAL CENTR'ECO 4 AVENUE DU GENERAL DE GAULLE 33290 BLANQUEFORT,44.924616,-0.63509
379999790,https://www.pappers.fr/recherche?q=379999790,Non renseigné,CTRE CIAL EXTENSION CARRIET 4 RUE JACQUES THIBAUD 33310 LORMONT,44.882748,-0.525438
380243949,https://www.pappers.fr/recherche?q=380243949,Non renseigné,1 RUE LATASTE 33500 LIBOURNE,44.917492,-0.235225
380471714,https://www.pappers.fr/recherche?q=380471714,Non renseigné,PARC DE RIBOT 153 RUE LOUIS BREGUET 33127 SAINT-JEAN-D'ILLAC,44.804183,-0.78413
381792613,https://www.pappers.fr/recherche?q=381792613,Non renseigné,18 ROUTE DU BOURG 33590 TALAIS,45.471041,-1.055662
381907393,https://www.pappers.fr/recherche?q=381907393,Non renseigné,139 BOULEVARD DE LA REPUBLIQUE 33510 ANDERNOS-LES-BAINS,44.741595,-1.097756
382404598,https://www.pappers.fr/recherche?q=382404598,Non renseigné,74 AVENUE JEAN JAURES 33600 PESSAC,44.808575,-0.624334
382865996,https://www.pappers.fr/recherche?q=382865996,Non renseigné,23 RUE VITAL CARLES 33000 BORDEAUX,44.839466,-0.578183
383362225,https://www.pappers.fr/recherche?q=383362225,Non renseigné,2 EME ETAGE 17 PASSAGE SARGET 33000 BORDEAUX,44.84241,-0.57633
383674538,https://www.pappers.fr/recherche?q=383674538,Non renseigné,20 RUE THIERS 33460 MACAU,45.007619,-0.615698
383702420,https://www.pappers.fr/recherche?q=383702420,Non renseigné,124 RUE FERDINAND BUISSON 33130 BEGLES,44.797398,-0.557662
383736170,https://www.pappers.fr/recherche?q=383736170,Non renseigné,3 PLACE GABRIEL COQUILLEAU 33500 ARVEYRES,44.885003,-0.283843
384677225,https://www.pappers.fr/recherche?q=384677225,Non renseigné,1 BIS ROUTE DE TAUDINAT 33450 MONTUSSAN,44.891098,-0.424167
384981155,https://www.pappers.fr/recherche?q=384981155,Non renseigné,219 COURS DU MARECHAL GALLIENI 33000 BORDEAUX,44.81973,-0.597639
388103855,https://www.pappers.fr/recherche?q=388103855,Non renseigné,6 VENELLE ABBE REBEYROL 33570 PUISSEGUIN,44.922903,-0.072991
388394173,https://www.pappers.fr/recherche?q=388394173,Non renseigné,11 ALLEE DES CAMELIAS 33480 SAINTE-HELENE,44.95854,-0.883704
388432858,https://www.pappers.fr/recherche?q=388432858,Non renseigné,1 RUE ALFRED DE MUSSET 33320 EYSINES,44.880615,-0.648914
388435836,https://www.pappers.fr/recherche?q=388435836,Non renseigné,149 AVENUE DE L'YSER 33700 MERIGNAC,44.841713,-0.666543
388736951,https://www.pappers.fr/recherche?q=388736951,Non renseigné,19 RUE PASTEUR 33210 LANGON,44.551725,-0.247031
388892952,https://www.pappers.fr/recherche?q=388892952,Non renseigné,8 LE MARHEUIL 33650 SAUCATS,44.672049,-0.621887
389071069,https://www.pappers.fr/recherche?q=389071069,Non renseigné,CHAMBERY 2 RUE FENELON 33140 VILLENAVE D ORNON,44.763573,-0.560651
389564493,https://www.pappers.fr/recherche?q=389564493,Non renseigné,3 RUE CHARLES GOUNOD 33160 SAINT-MEDARD-EN-JALLES,44.895973,-0.750053
389726043,https://www.pappers.fr/recherche?q=389726043,Non renseigné,2 RUE DE LA GLACIERE 33220 PINEUILH,44.836837,0.227165
389928284,https://www.pappers.fr/recherche?q=389928284,Non renseigné,CAZAUX 1 CAP DU MONT DE HAUT 33115 LA TESTE DE BUCH,44.605331,-1.203309
390261378,https://www.pappers.fr/recherche?q=390261378,Non renseigné,336 AVENUE DU MARECHAL DE LATTRE DE TASSIGNY 33200 BORDEAUX,44.858315,-0.624013
390359552,https://www.pappers.fr/recherche?q=390359552,Non renseigné,LE JARDIN DE THALIE 78 RUE CHEVALIER DE LA BARRE 33130 BEGLES,44.80337,-0.546561
390577245,https://www.pappers.fr/recherche?q=390577245,Non renseigné,188 COURS DE LA MARNE 33800 BORDEAUX,44.828022,-0.559776
390578193,https://www.pappers.fr/recherche?q=390578193,https://celinecroisan.com/,220 COURS DE LA SOMME 33800 BORDEAUX,44.82229,-0.572372
390661346,https://www.pappers.fr/recherche?q=390661346,Non renseigné,12 PLACE DE LA MAIRIE 33540 GORNAC,44.662452,-0.181813
391091444,https://www.pappers.fr/recherche?q=391091444,Non renseigné,90 RUE MONTESQUIEU 33500 LIBOURNE,44.916951,-0.241437
391637824,https://www.pappers.fr/recherche?q=391637824,Non renseigné,CTRE COMMERCIAL MERIADECK 57 RUE DU CHATEAU D'EAU 33000 BORDEAUX,44.838924,-0.583142
392072641,https://www.pappers.fr/recherche?q=392072641,https://art-coiffure-stmedard.fr/,8 RUE FRANCOIS MITTERRAND 33160 SAINT-MEDARD-EN-JALLES,44.895256,-0.717438
392513750,https://www.pappers.fr/recherche?q=392513750,https://leptitsauveterrien.com/,3 PLACE DE LA REPUBLIQUE 33540 SAUVETERRE-DE-GUYENNE,44.692537,-0.086106
392637872,https://www.pappers.fr/recherche?q=392637872,Non renseigné,LE TOURNE,44.034074,0.386648
392687323,https://www.pappers.fr/recherche?q=392687323,Non renseigné,2 AVENUE GAMBETTA 33480 CASTELNAU-DE-MEDOC,45.028047,-0.798648
392941381,https://www.pappers.fr/recherche?q=392941381,Non renseigné,18 ALLEE DES BRUYERES 33470 GUJAN-MESTRAS,44.636255,-1.112671
393004502,https://www.pappers.fr/recherche?q=393004502,Non renseigné,ETAGE 0 26 AVENUE DE LA REPUBLIQUE 33138 LANTON,44.708855,-1.050462
393187943,https://www.pappers.fr/recherche?q=393187943,Non renseigné,2 DESTANQUE 33720 BARSAC,44.596021,-0.317773
393273834,https://www.pappers.fr/recherche?q=393273834,https://urban-coiffure.fr/,90 RUE DU LOUP 33000 BORDEAUX,44.837746,-0.575756
393482013,https://www.pappers.fr/recherche?q=393482013,Non renseigné,22 RUE FONDAUDEGE 33000 BORDEAUX,44.845913,-0.579204
393576525,https://www.pappers.fr/recherche?q=393576525,Non renseigné,14 AVENUE DU BOURG 33390 BERSON,45.107221,-0.587257
393693353,https://www.pappers.fr/recherche?q=393693353,Non renseigné,17 AVENUE ROGER COHE 33600 PESSAC,44.806774,-0.631614
393795307,https://www.pappers.fr/recherche?q=393795307,Non renseigné,27 RUE DE LA DEVISE 33000 BORDEAUX,44.84006,-0.571728
393827027,https://www.pappers.fr/recherche?q=393827027,Non renseigné,PESSAC,44.787468,-0.675933
393895487,https://www.pappers.fr/recherche?q=393895487,https://coiffeusementvotre.fr/,6 AVENUE DE L'EUROPE 33350 SAINT-MAGNE-DE-CASTILLON,44.854571,-0.052766
394238984,https://www.pappers.fr/recherche?q=394238984,Non renseigné,MAISON NO 6 71 RUE CARLE VERNET 33140 VILLENAVE-D'ORNON,44.77014,-0.551837
394382360,https://www.pappers.fr/recherche?q=394382360,Non renseigné,"6, B RUE DE LA SEOUBE 33260 LA TESTE-DE-BUCH",44.621092,-1.150195
394647382,https://www.pappers.fr/recherche?q=394647382,Non renseigné,3 QUAI HUBERT PROM 33300 BORDEAUX,44.868397,-0.555329
394697882,https://www.pappers.fr/recherche?q=394697882,Non renseigné,97 AVENUE JEAN CORDIER 33600 PESSAC,44.81698,-0.61824
394703177,https://www.pappers.fr/recherche?q=394703177,https://salonvirginiecoiffure.fr/,72 AVENUE AUSTIN CONTE 33560 CARBON-BLANC,44.896538,-0.498301
397609751,https://www.pappers.fr/recherche?q=397609751,Non renseigné,2 RUE PORTE DU DROT 33580 MONSEGUR,44.65033,0.079378
398227462,https://www.pappers.fr/recherche?q=398227462,https://epitetepessac.fr/,38 AVENUE DU PONT DE L'ORIENT 33600 PESSAC,44.80804,-0.649237
398365742,https://www.pappers.fr/recherche?q=398365742,Non renseigné,115 ROUTE DE LA SAUVETAT 33390 CARS,45.137672,-0.610526
398579953,https://www.pappers.fr/recherche?q=398579953,Non renseigné,141 BOULEVARD DE LA REPUBLIQUE 33510 ANDERNOS-LES-BAINS,44.741618,-1.097791
398596536,https://www.pappers.fr/recherche?q=398596536,Non renseigné,5 RUE MARC BOURGUEDIEU 33112 SAINT-LAURENT-MEDOC,45.150946,-0.821394
398609867,https://www.pappers.fr/recherche?q=398609867,Non renseigné,CTRE CIAL CARREFOUR MARKET 1 PEY DU PRAT 33420 GREZILLAC,44.831392,-0.189897
398782987,https://www.pappers.fr/recherche?q=398782987,Non renseigné,2 LD GABILLONNERIE 33540 SAINT-BRICE,44.694507,-0.145015
398903138,https://www.pappers.fr/recherche?q=398903138,Non renseigné,441 ALLEE DU HAPCHOT 33127 SAINT-JEAN-D'ILLAC,44.813053,-0.791235
398943613,https://www.pappers.fr/recherche?q=398943613,Non renseigné,200 AVENUE DU GENERAL DE GAULLE 33290 BLANQUEFORT,44.927845,-0.635323
399174051,https://www.pappers.fr/recherche?q=399174051,Non renseigné,120 RUE BRANLY 33720 CERONS,44.631103,-0.335618
399223478,https://www.pappers.fr/recherche?q=399223478,Non renseigné,PLACE DU 1ER AOUT 33730 PRECHAC,44.398978,-0.353018
399241280,https://www.pappers.fr/recherche?q=399241280,Non renseigné,PORCHERES,45.038086,0.008181
399253103,https://www.pappers.fr/recherche?q=399253103,Non renseigné,99 COURS DE LA REPUBLIQUE 33470 GUJAN-MESTRAS,44.63945,-1.060163
399333327,https://www.pappers.fr/recherche?q=399333327,https://carinetrille.fr/,2 CHEMIN DU CASSE 33500 LIBOURNE,44.918652,-0.226076
399388271,https://www.pappers.fr/recherche?q=399388271,Non renseigné,4 RUE DU GENERAL DE GAULLE 33590 SAINT-VIVIEN-DE-MEDOC,45.431333,-1.035653
399607100,https://www.pappers.fr/recherche?q=399607100,https://luciesaintclair.fr/,74 COURS GEORGES CLEMENCEAU 33000 BORDEAUX,44.84442,-0.578156
399675941,https://www.pappers.fr/recherche?q=399675941,Non renseigné,11 ALLEE ROGER TOUTON 33120 ARCACHON,44.648202,-1.185303
399799840,https://www.pappers.fr/recherche?q=399799840,https://coiffeur-arcachon-sylcoiff.fr/,45 COURS HERICART DE THURY 33120 ARCACHON,44.66073,-1.165752
400144994,https://www.pappers.fr/recherche?q=400144994,Non renseigné,12 PLACE ALBERT RIGOULET 33190 LA REOLE,44.581414,-0.04138
400534434,https://www.pappers.fr/recherche?q=400534434,Non renseigné,6 RUE FLORNOY 33000 BORDEAUX,44.834045,-0.610313
400703567,https://www.pappers.fr/recherche?q=400703567,Non renseigné,4 LOT COTEAUX DE GUYENNE 33540 SAUVETERRE-DE-GUYENNE,44.693032,-0.077874
400895231,https://www.pappers.fr/recherche?q=400895231,Non renseigné,20 RUE PALLAS 33430 BAZAS,44.432401,-0.212596
401033436,https://www.pappers.fr/recherche?q=401033436,Non renseigné,3 LD LE MEDECIN 33430 BERNOS-BEAULAC,44.378915,-0.245206
401301387,https://www.pappers.fr/recherche?q=401301387,Non renseigné,2 RUE ANATOLE FRANCE 33230 COUTRAS,45.041102,-0.127731
401470018,https://www.pappers.fr/recherche?q=401470018,Non renseigné,2 RUE DU PARC DES SPORTS 33440 AMBARES-ET-LAGRAVE,44.928787,-0.489612
402124556,https://www.pappers.fr/recherche?q=402124556,Non renseigné,416 AVENUE DU MARECHAL DE LATTRE DE TASSIGNY 33200 BORDEAUX,44.85893,-0.629127
402144422,https://www.pappers.fr/recherche?q=402144422,Non renseigné,PESSAC,44.787468,-0.675933
402262752,https://www.pappers.fr/recherche?q=402262752,Non renseigné,CENTRE COMMERCIAL GRAND TOUR 33560 SAINTE-EULALIE,44.894192,-0.46827
402262752,https://www.pappers.fr/recherche?q=402262752,Non renseigné,C CIAL AUCHAN MERIADECK LOCAL 15B - 33092 BORDEAUX CEDEX  RUE CLAUDE BONNIER 33000 BORDEAUX,44.837936,-0.585392
402262752,https://www.pappers.fr/recherche?q=402262752,Non renseigné,CENTRE COMMERCIAL AUCHAN  RUE DE LA GABARE 33270 BOULIAC,44.81841,-0.523737
402262752,https://www.pappers.fr/recherche?q=402262752,Non renseigné,CENTRE COMMERCIAL CARREFOUR 102 AVENUE DU GENERAL DE GAULLE 33500 LIBOURNE,44.901162,-0.220968
402262752,https://www.pappers.fr/recherche?q=402262752,Non renseigné,CENTRE COMMERCIAL AUCHAN  AVENUE GUSTAVE EIFFEL 33600 PESSAC,44.782293,-0.648481
402262752,https://www.pappers.fr/recherche?q=402262752,Non renseigné,CENTRE COMMERCIAL LECLERC BORDEAUX OUE  AVENUE DESCARTES 33160 SAINT-MEDARD-EN-JALLES,44.886106,-0.695009
402262752,https://www.pappers.fr/recherche?q=402262752,Non renseigné,CENTRE COMMERCIAL INTERMARCHE CAP OCEA  RUE LAGRUA 33260 LA TESTE-DE-BUCH,44.637347,-1.154314
402262752,https://www.pappers.fr/recherche?q=402262752,Non renseigné,CENTRE COMMERCIAL CARREFOUR  AVENUE DE LA SOMME 33700 MERIGNAC,44.8299,-0.661679
402262752,https://www.pappers.fr/recherche?q=402262752,Non renseigné,CENTRE COMMERCIAL AUCHAN LE LAC  AVENUE ANDRE REINSON 33300 BORDEAUX,44.878213,-0.571602
402303564,https://www.pappers.fr/recherche?q=402303564,Non renseigné,14 CITE TOUVENT 33390 BLAYE,45.127449,-0.653151
402429542,https://www.pappers.fr/recherche?q=402429542,Non renseigné,1748 RTE JEAN BAPTISTE DE BAUDRE 33210 CASTETS ET CASTILLON,44.55732,-0.140623
402936462,https://www.pappers.fr/recherche?q=402936462,Non renseigné,CHEMIN DE L??ESTEY 33360 LATRESNE,44.784413,-0.490129
403057847,https://www.pappers.fr/recherche?q=403057847,Non renseigné,7 COICAULT 33760 MARTRES,44.698501,-0.169156
403076441,https://www.pappers.fr/recherche?q=403076441,Non renseigné,14 JOFFRE 33480 CASTELNAU-DE-MEDOC,45.026838,-0.799146
403159833,https://www.pappers.fr/recherche?q=403159833,Non renseigné,30 ROUTE DE L??EUROPE 33910 SAINT-DENIS-DE-PILE,44.98985,-0.174572
403752876,https://www.pappers.fr/recherche?q=403752876,Non renseigné,1 RUE DU BEARN 33600 PESSAC,44.79491,-0.666286
404130346,https://www.pappers.fr/recherche?q=404130346,Non renseigné,37 AVENUE DU GENERAL DE GAULLE 33550 LANGOIRAN,44.706975,-0.401463
404410169,https://www.pappers.fr/recherche?q=404410169,Non renseigné,"19, B ALLEE DE LA PRAIRIE 33470 GUJAN-MESTRAS",44.63864,-1.097786
404500795,https://www.pappers.fr/recherche?q=404500795,Non renseigné,8 AV LOUIS GIRESSE 33210 CASTETS ET CASTILLON,44.560582,-0.153502
404837015,https://www.pappers.fr/recherche?q=404837015,https://salon-olivier-merignac.fr/,36 AVENUE DE LA LIBERATION 33700 MERIGNAC,44.845703,-0.644592
404953481,https://www.pappers.fr/recherche?q=404953481,Non renseigné,BATIMENT LE FRANCE 9 RUE MONTGOLFIER 33700 MERIGNAC,44.85502,-0.65311
405305236,https://www.pappers.fr/recherche?q=405305236,Non renseigné,LE BOURG 33133 GALGON,44.990766,-0.272594
408074417,https://www.pappers.fr/recherche?q=408074417,Non renseigné,62 AVENUE AUSTIN CONTE 33560 CARBON-BLANC,44.89617,-0.498654
408164226,https://www.pappers.fr/recherche?q=408164226,Non renseigné,5 AV DE GALGON 33140 VILLENAVE D ORNON,44.77108,-0.541081
408481778,https://www.pappers.fr/recherche?q=408481778,Non renseigné,6 ESPLANADE FRANCOIS MITTERRAND 33500 LIBOURNE,44.916405,-0.240577
408483386,https://www.pappers.fr/recherche?q=408483386,https://studiorivegauche.fr/,139 COURS VICTOR HUGO 33000 BORDEAUX,44.83511,-0.574304
408533396,https://www.pappers.fr/recherche?q=408533396,Non renseigné,33 COURS DE QUEBEC 33300 BORDEAUX,44.87895,-0.571041
408886026,https://www.pappers.fr/recherche?q=408886026,Non renseigné,1 CHEMIN DE PEYCHON 33370 TRESSES,44.840801,-0.481677
408953974,https://www.pappers.fr/recherche?q=408953974,Non renseigné,10 LE BOURG 33340 BEGADAN,45.356711,-0.893524
408953974,https://www.pappers.fr/recherche?q=408953974,Non renseigné,SAINTE TRELODY 67 COURS VICTOR HUGO 33340 LESPARRE-MEDOC,45.302932,-0.924493
409087806,https://www.pappers.fr/recherche?q=409087806,Non renseigné,ROND POINT BEAUSEJOUR  LA LANDE 33450 SAINT-LOUBES,44.92627,-0.464228
409201522,https://www.pappers.fr/recherche?q=409201522,Non renseigné,38 COURS DE VERDUN 33470 GUJAN-MESTRAS,44.636245,-1.075982
409443082,https://www.pappers.fr/recherche?q=409443082,Non renseigné,LE CAPLANNE 27 ROUTE DE LA MOLE 33770 SALLES,44.546506,-0.911795
409788072,https://www.pappers.fr/recherche?q=409788072,Non renseigné,163 BOULEVARD ALBERT 1ER 33130 BEGLES,44.81311,-0.563411
410098040,https://www.pappers.fr/recherche?q=410098040,https://innova-coiffure.fr/,24 COURS GEORGES CLEMENCEAU 33240 SAINT-ANDRE-DE-CUBZAC,44.995058,-0.445679
410153969,https://www.pappers.fr/recherche?q=410153969,Non renseigné,3 RUE DE LA MAISON DES JEUNES 33320 LE TAILLAN-MEDOC,44.90695,-0.668375
410196216,https://www.pappers.fr/recherche?q=410196216,Non renseigné,228 AVENUE DU TAILLAN-MEDOC 33320 EYSINES,44.883392,-0.655238
410413710,https://www.pappers.fr/recherche?q=410413710,Non renseigné,261 RUE SAINTE-CATHERINE 33000 BORDEAUX,44.832085,-0.572962
410440994,https://www.pappers.fr/recherche?q=410440994,Non renseigné,27 RUE FLORNOY 33000 BORDEAUX,44.83333,-0.610736
410455869,https://www.pappers.fr/recherche?q=410455869,https://initiale-c-coiffure-bordeaux.fr/,194 AVENUE LOUIS BARTHOU 33000 BORDEAUX,44.821629,-0.582632
411569189,https://www.pappers.fr/recherche?q=411569189,Non renseigné,LD LA GARE 11 PLACE MAUCAILLOU 33450 SAINT-SULPICE-ET-CAMEYRAC,44.912854,-0.391932
411649882,https://www.pappers.fr/recherche?q=411649882,Non renseigné,275 COURS DE L'ARGONNE 33000 BORDEAUX,44.821957,-0.582223
411763311,https://www.pappers.fr/recherche?q=411763311,Non renseigné,85-5  RUE DEJEAN CASTAING 33470 GUJAN-MESTRAS,44.636667,-1.101714
411837610,https://www.pappers.fr/recherche?q=411837610,Non renseigné,40 RUE NOTRE DAME 33000 BORDEAUX,44.850643,-0.571901
412061202,https://www.pappers.fr/recherche?q=412061202,Non renseigné,"5, B PL DU 8 MAI 33340 GAILLAN-EN-MEDOC",45.322068,-0.957013
412162174,https://www.pappers.fr/recherche?q=412162174,Non renseigné,GALERIE MARCHANDE  SAINT-JULIEN 33210 TOULENNE,44.557635,-0.261467
412445496,https://www.pappers.fr/recherche?q=412445496,Non renseigné,"40, B ALLEE DES COLOMBES 33500 LIBOURNE",44.937849,-0.239681
412763658,https://www.pappers.fr/recherche?q=412763658,Non renseigné,200 BOULEVARD DE LA REPUBLIQUE 33510 ANDERNOS-LES-BAINS,44.741372,-1.097056
413093964,https://www.pappers.fr/recherche?q=413093964,Non renseigné,56 AVENUE DE LA LIBERATION 33380 BIGANOS,44.642046,-0.977031
413096330,https://www.pappers.fr/recherche?q=413096330,Non renseigné,1 PLACE ROMAIN VIDEAU 33480 CASTELNAU-DE-MEDOC,45.027108,-0.801217
413156654,https://www.pappers.fr/recherche?q=413156654,https://helene-arpin-coiffure.com/,8 AVENUE DE GOURINAT 33500 LIBOURNE,44.905064,-0.228654
413156654,https://www.pappers.fr/recherche?q=413156654,https://helene-arpin-coiffure.com/,121 AVENUE GEORGES POMPIDOU 33500 LIBOURNE,44.937021,-0.235376
413170069,https://www.pappers.fr/recherche?q=413170069,Non renseigné,24 RTE DU MOULIN 33210 CASTETS ET CASTILLON,44.561799,-0.144064
413197161,https://www.pappers.fr/recherche?q=413197161,Non renseigné,5 AVENUE DE CAP DE BOS 33160 SAINT-MEDARD-EN-JALLES,44.896137,-0.780894
413203316,https://www.pappers.fr/recherche?q=413203316,Non renseigné,236 AVENUE THIERS 33100 BORDEAUX,44.848937,-0.552606
414069492,https://www.pappers.fr/recherche?q=414069492,Non renseigné,CTRE CIAL LA RENNEY 102 AVENUE DU 11 NOVEMBRE 33290 BLANQUEFORT,44.912453,-0.62542
414383190,https://www.pappers.fr/recherche?q=414383190,Non renseigné,19 ALLEE ALBERT CAMUS 33114 LE BARP,44.613662,-0.774052
414464719,https://www.pappers.fr/recherche?q=414464719,https://figure-libre.com/,35 RUE DU TEMPLE 33000 BORDEAUX,44.83992,-0.577703
414464719,https://www.pappers.fr/recherche?q=414464719,https://figure-libre.com/,78 RUE DU LOUP 33000 BORDEAUX,44.837856,-0.575137
414484451,https://www.pappers.fr/recherche?q=414484451,Non renseigné,LD LA BASTIDOTE 33220 EYNESSE,44.824946,0.150434
414537456,https://www.pappers.fr/recherche?q=414537456,Non renseigné,13 RUE DE TOULOUSE LAUTREC 33000 BORDEAUX,44.84021,-0.580692
414553396,https://www.pappers.fr/recherche?q=414553396,Non renseigné,53 RUE DE LA CROIX DE MONJOUS 33170 GRADIGNAN,44.774807,-0.597788
414557660,https://www.pappers.fr/recherche?q=414557660,Non renseigné,CENTRE CIAL MERIADECK  RUE DU CHATEAU D'EAU 33000 BORDEAUX,44.840014,-0.58322
414595512,https://www.pappers.fr/recherche?q=414595512,Non renseigné,1 BOULEVARD DU PAGE 33510 ANDERNOS-LES-BAINS,44.755962,-1.089957
414598045,https://www.pappers.fr/recherche?q=414598045,Non renseigné,2 RUE DE COMET 33450 SAINT-LOUBES,44.917631,-0.430113
414716779,https://www.pappers.fr/recherche?q=414716779,Non renseigné,MARTILLAC,44.725144,-0.554606
414737858,https://www.pappers.fr/recherche?q=414737858,Non renseigné,59 RUE VICTOR HUGO 33220 SAINTE-FOY-LA-GRANDE,44.840499,0.217203
414994905,https://www.pappers.fr/recherche?q=414994905,Non renseigné,1 RUE MARCELIN BERTHELOT 33200 BORDEAUX,44.8456,-0.613408
415186782,https://www.pappers.fr/recherche?q=415186782,Non renseigné,ANDERNOS-LES-BAINS,44.751412,-1.083375
415288380,https://www.pappers.fr/recherche?q=415288380,Non renseigné,391 BOULEVARD DU PRESIDENT WILSON 33110 LE BOUSCAT,44.853382,-0.593973
415288612,https://www.pappers.fr/recherche?q=415288612,Non renseigné,18 AVENUE RENE CASSAGNE 33150 CENON,44.864582,-0.513597
415408376,https://www.pappers.fr/recherche?q=415408376,Non renseigné,198 COURS BALGUERIE STUTTENBERG 33300 BORDEAUX,44.86102,-0.562924
417624996,https://www.pappers.fr/recherche?q=417624996,Non renseigné,10 PLACE ABEL SURCHAMP 33500 LIBOURNE,44.914668,-0.244462
417738879,https://www.pappers.fr/recherche?q=417738879,Non renseigné,59 RUE DES PINS VERTS 33260 LA TESTE-DE-BUCH,44.617018,-1.147344
417758836,https://www.pappers.fr/recherche?q=417758836,Non renseigné,RES MARLY 24 RUE FRAGONARD 33200 BORDEAUX,44.856609,-0.633758
417758836,https://www.pappers.fr/recherche?q=417758836,Non renseigné,39 RUE VIRGINIA 33200 BORDEAUX,44.847603,-0.627528
417764560,https://www.pappers.fr/recherche?q=417764560,Non renseigné,MONSEGUR,44.64834,0.081853
417998606,https://www.pappers.fr/recherche?q=417998606,Non renseigné,27 AVENUE DE LA COTE D??ARGENT 33680 LE PORGE,44.880728,-1.085308
418013587,https://www.pappers.fr/recherche?q=418013587,Non renseigné,5 PLACE DU MARCHE 33690 GRIGNOLS,44.387653,-0.044181
418396958,https://www.pappers.fr/recherche?q=418396958,https://chezmoi.coiffure/,PINEUILH,44.82859,0.226838
418639530,https://www.pappers.fr/recherche?q=418639530,Non renseigné,CCIAL LE CLOS MONTESQUIEU  AVENUE DE BOURRANVILLE 33700 MERIGNAC,44.844748,-0.632049
418684999,https://www.pappers.fr/recherche?q=418684999,Non renseigné,QUARTIER DES PECHEURS 33970 LEGE-CAP-FERRET,44.644796,-1.246168
418751608,https://www.pappers.fr/recherche?q=418751608,Non renseigné,32 COURS DU MARECHAL FOCH 33720 PODENSAC,44.652463,-0.358238
419267208,https://www.pappers.fr/recherche?q=419267208,Non renseigné,32 ROUTE DU BOURG 33590 TALAIS,45.469902,-1.054272
419375258,https://www.pappers.fr/recherche?q=419375258,Non renseigné,GALERIE LA PALUE  RUE DU BAOU 33260 LA TESTE-DE-BUCH,44.629969,-1.15436
419764501,https://www.pappers.fr/recherche?q=419764501,Non renseigné,8 AVENUE DES MARTYRS DE LA LIBERATION 33700 MERIGNAC,44.84135,-0.667975
419926894,https://www.pappers.fr/recherche?q=419926894,Non renseigné,115 ROUTE DE VILLANDRAUT 33430 BAZAS,44.445028,-0.237551
420123952,https://www.pappers.fr/recherche?q=420123952,Non renseigné,CHEMIN DE LA CALE DU CENTRE 33240 SAINT-ANDRE-DE-CUBZAC,44.990882,-0.466522
420368078,https://www.pappers.fr/recherche?q=420368078,Non renseigné,3 RUE HUGLA 33700 MERIGNAC,44.820442,-0.625689
420415689,https://www.pappers.fr/recherche?q=420415689,https://coiffure-nat-tif-33.fr/,60 AVENUE RENE CASSAGNE 33150 CENON,44.860035,-0.514864
420415689,https://www.pappers.fr/recherche?q=420415689,https://coiffure-nat-tif-33.fr/,LOCAL N 10 21 AVENUE GAY-LUSSAC 33370 ARTIGUES-PRES-BORDEAUX,44.851579,-0.498076
420478091,https://www.pappers.fr/recherche?q=420478091,Non renseigné,51 RUE POYENNE 33300 BORDEAUX,44.857132,-0.566767
420699985,https://www.pappers.fr/recherche?q=420699985,Non renseigné,255 RUE JUDAIQUE 33000 BORDEAUX,44.84039,-0.59811
420700049,https://www.pappers.fr/recherche?q=420700049,Non renseigné,20 AV DU MAL FOCH 33850 LEOGNAN,44.734559,-0.598039
420755217,https://www.pappers.fr/recherche?q=420755217,https://celine-coiffure-saint-savin.fr/,2 RUE ALPHONSE MICHEAU 33920 SAINT-SAVIN,45.138839,-0.448445
420781692,https://www.pappers.fr/recherche?q=420781692,https://alternatif-coiffure.fr/,12 RUE CAUPOS 33680 LACANAU,44.976974,-1.075772
420806051,https://www.pappers.fr/recherche?q=420806051,Non renseigné,15 RUE DE LA POSTE 33930 VENDAYS-MONTALIVET,45.355262,-1.060237
420806051,https://www.pappers.fr/recherche?q=420806051,Non renseigné,5 AV DE LABREDE 33930 VENDAYS-MONTALIVET,45.378689,-1.150299
421199746,https://www.pappers.fr/recherche?q=421199746,Non renseigné,4 AVENUE SAINT-EXUPERY 33530 BASSENS,44.902023,-0.514174
421431164,https://www.pappers.fr/recherche?q=421431164,https://atelier31-coiffure.fr/,31 RUE DOCTEUR CHARLES NANCEL PENARD 33000 BORDEAUX,44.839363,-0.581595
421567363,https://www.pappers.fr/recherche?q=421567363,Non renseigné,LD COQS 33760 ESCOUSSANS,44.68112,-0.266701
421672601,https://www.pappers.fr/recherche?q=421672601,Non renseigné,22 RUE DES FRERES FAUCHER 33190 LA REOLE,44.580964,-0.037138
421788399,https://www.pappers.fr/recherche?q=421788399,Non renseigné,66 RUE DU MARECHAL JOFFRE 33130 BEGLES,44.804443,-0.55088
422221101,https://www.pappers.fr/recherche?q=422221101,Non renseigné,1 PLACE BERNARD ROUMEGOUX 33170 GRADIGNAN,44.773584,-0.614672
422245415,https://www.pappers.fr/recherche?q=422245415,Non renseigné,CTRE COMMERCIAL LA MORLETTE  IMP DU CLOS DES CAVAILLES 33150 CENON,44.852758,-0.521504
422604074,https://www.pappers.fr/recherche?q=422604074,Non renseigné,"30, B RUE DES GRAVRES 33640 PORTETS",44.693296,-0.421793
422646992,https://www.pappers.fr/recherche?q=422646992,https://patriciacoiffure.fr/,58 COURS DE LA MARNE 33800 BORDEAUX,44.830036,-0.568726
423136332,https://www.pappers.fr/recherche?q=423136332,Non renseigné,LES GALENTS BAT D ENT 2 LOG 22 3 RUE EUGENE DELACROIX 33130 BEGLES,44.78407,-0.561913
423260553,https://www.pappers.fr/recherche?q=423260553,Non renseigné,LIEU DIT VIGNATON 33430 GANS,44.45209,-0.108718
423448760,https://www.pappers.fr/recherche?q=423448760,Non renseigné,17 PLACE GAMBETTA 33110 LE BOUSCAT,44.865517,-0.600188
423883396,https://www.pappers.fr/recherche?q=423883396,Non renseigné,46 RUE AUGUSTE COMTE 33400 TALENCE,44.815006,-0.578182
424031706,https://www.pappers.fr/recherche?q=424031706,Non renseigné,31 COURS LAMARQUE DE PLAISANCE 33120 ARCACHON,44.661195,-1.171554
424051670,https://www.pappers.fr/recherche?q=424051670,Non renseigné,"3, T AVENUE DES MARTYRS DE LA LIBERATION 33700 MERIGNAC",44.841587,-0.66806
424117703,https://www.pappers.fr/recherche?q=424117703,Non renseigné,CESTAS,44.737498,-0.705264
424119063,https://www.pappers.fr/recherche?q=424119063,Non renseigné,7 RES LA ROSE BLANCHE 33490 SAINT-MAIXANT,44.569919,-0.233649
424162295,https://www.pappers.fr/recherche?q=424162295,Non renseigné,118 COURS DU GENERAL DE GAULLE 33170 GRADIGNAN,44.77341,-0.613975
424295384,https://www.pappers.fr/recherche?q=424295384,Non renseigné,"54, B ROUTE DEPARTEMENTALE 671 33670 SADIRAC",44.793934,-0.383579
424472520,https://www.pappers.fr/recherche?q=424472520,Non disponible,2 RUE DU CARBOUEY 33650 CABANAC-ET-VILLAGRAINS,44.607822,-0.552979
424555597,https://www.pappers.fr/recherche?q=424555597,https://salon-patricia-paumelle.fr/,89 AVENUE ANATOLE FRANCE 33160 SAINT-MEDARD-EN-JALLES,44.89383,-0.7462
424573202,https://www.pappers.fr/recherche?q=424573202,Non renseigné,LES CALLONGES 33820 SAINT-CIERS-SUR-GIRONDE,45.286181,-0.701168
424573202,https://www.pappers.fr/recherche?q=424573202,Non renseigné,1 AVENUE ANDRE LAFON 33820 SAINT-CIERS-SUR-GIRONDE,45.291156,-0.610742
424940518,https://www.pappers.fr/recherche?q=424940518,Non renseigné,12 ROUTE DE BORDEAUX 33121 CARCANS,45.078541,-1.043688
425287257,https://www.pappers.fr/recherche?q=425287257,Non renseigné,4 AVENUE MAURICE FAYE 33600 PESSAC,44.810684,-0.623288
428563654,https://www.pappers.fr/recherche?q=428563654,Non renseigné,11 RUE DU PARLEMENT SAINT PIERRE 33000 BORDEAUX,44.8402,-0.570894
428566368,https://www.pappers.fr/recherche?q=428566368,Non renseigné,25 ROUTE DE BAZAS 33840 CAPTIEUX,44.292884,-0.261354
428621254,https://www.pappers.fr/recherche?q=428621254,Non renseigné,7 DOMAINE D ARMANCE 33720 SAINT-MICHEL-DE-RIEUFRET,44.624504,-0.433291
428704209,https://www.pappers.fr/recherche?q=428704209,Non renseigné,100 ZONE ARTISANALE DE L??ILLOT 33240 LA LANDE-DE-FRONSAC,44.973324,-0.385404
428829659,https://www.pappers.fr/recherche?q=428829659,Non renseigné,1170 AVENUE DE LA LIBERATION 33660 SAINT-ANTOINE-SUR-L'ISLE,45.027605,0.040147
428873806,https://www.pappers.fr/recherche?q=428873806,Non renseigné,8 COURS BARBEY 33800 BORDEAUX,44.82806,-0.562337
428901417,https://www.pappers.fr/recherche?q=428901417,Non renseigné,20 CHEMIN DES MOINES 33360 CARIGNAN-DE-BORDEAUX,44.806981,-0.481943
429229354,https://www.pappers.fr/recherche?q=429229354,Non renseigné,"136, B RUE DE LA REPUBLIQUE 33220 SAINTE-FOY-LA-GRANDE",44.842439,0.219544
429231293,https://www.pappers.fr/recherche?q=429231293,Non renseigné,55 AVENUE LOUIS BARTHOU 33000 BORDEAUX,44.821629,-0.582632
429479322,https://www.pappers.fr/recherche?q=429479322,https://lesgrandsboulevards-lc.fr/,82 AV DE LA LIBERATION 33110 LE BOUSCAT,44.856262,-0.596754
429481005,https://www.pappers.fr/recherche?q=429481005,Non renseigné,27 RUE DU CHATEAU D'EAU 33000 BORDEAUX,44.840565,-0.583389
429536766,https://www.pappers.fr/recherche?q=429536766,Non renseigné,30 RUE DE BONNEFONT 33240 CUBZAC-LES-PONTS,44.973098,-0.465814
429837297,https://www.pappers.fr/recherche?q=429837297,Non disponible,1 PLACE DU SOUVENIR 33610 CESTAS,44.741801,-0.686046
429932130,https://www.pappers.fr/recherche?q=429932130,Non disponible,4 PLACE PEY BERLAND 33000 BORDEAUX,44.8382,-0.578427
429932130,https://www.pappers.fr/recherche?q=429932130,Non renseigné,1 PL DE L EGLISE 33400 TALENCE,44.814426,-0.590979
429932130,https://www.pappers.fr/recherche?q=429932130,Non renseigné,RES ESPACE ALIENOR 11 AVENUE D'AQUITAINE 33520 BRUGES,44.88194,-0.611031
429932130,https://www.pappers.fr/recherche?q=429932130,Non renseigné,47 RUE FRANCOIS MITTERRAND 33160 SAINT-MEDARD-EN-JALLES,44.89459,-0.71591
429932130,https://www.pappers.fr/recherche?q=429932130,Non renseigné,35 ALLEE DE TOURNY 33000 BORDEAUX,44.844994,-0.576862
429932130,https://www.pappers.fr/recherche?q=429932130,Non renseigné,30 AVENUE HUBERT DUBEDOUT 33150 CENON,44.847034,-0.511782
429932130,https://www.pappers.fr/recherche?q=429932130,Non renseigné,RUE DE LA GABARE 33270 BOULIAC,44.81841,-0.523737
430102129,https://www.pappers.fr/recherche?q=430102129,https://lesalonderic.fr/,54 RUE MONTAUDON 33500 LIBOURNE,44.908398,-0.243563
430143834,https://www.pappers.fr/recherche?q=430143834,Non renseigné,11 RUE DU CARBOUEY 33650 CABANAC-ET-VILLAGRAINS,44.607812,-0.551481
430327254,https://www.pappers.fr/recherche?q=430327254,Non renseigné,18 ROUTE DE FALEYRAS 33760 TARGON,44.743548,-0.251268
430440719,https://www.pappers.fr/recherche?q=430440719,Non renseigné,56 AVENUE PASTEUR 33600 PESSAC,44.805958,-0.633152
431603166,https://www.pappers.fr/recherche?q=431603166,Non renseigné,5 RUE DU STADE 33480 AVENSAN,45.034288,-0.758169
431869213,https://www.pappers.fr/recherche?q=431869213,Non renseigné,13 ALLEE DE LA CHAPELLE 33120 ARCACHON,44.662003,-1.181241
432064285,https://www.pappers.fr/recherche?q=432064285,Non renseigné,38 AVENUE DE LA COTE D??ARGENT 33380 BIGANOS,44.633916,-0.976543
432080422,https://www.pappers.fr/recherche?q=432080422,Non renseigné,PYLA SUR MER 44 AVENUE DE BISCARROSSE 33260 LA TESTE-DE-BUCH,44.605259,-1.200527
432118800,https://www.pappers.fr/recherche?q=432118800,Non renseigné,4 RUE EDOUARD BRANLY 33140 VILLENAVE-D'ORNON,44.77039,-0.557618
432197085,https://www.pappers.fr/recherche?q=432197085,Non renseigné,1 RUE DE L'ANCIENNE POSTE 33460 MARGAUX-CANTENAC,45.042873,-0.679819
432255123,https://www.pappers.fr/recherche?q=432255123,Non renseigné,5 PLACE DE LA LIBERTE 33160 SAINT-MEDARD-EN-JALLES,44.888405,-0.701655
432507614,https://www.pappers.fr/recherche?q=432507614,https://coiffuresdemarc.com/,1 RUE DU CHATEAU D'EAU 33000 BORDEAUX,44.84151,-0.583573
432628329,https://www.pappers.fr/recherche?q=432628329,Non renseigné,57 RUE MONDENARD 33000 BORDEAUX,44.846283,-0.588164
432719169,https://www.pappers.fr/recherche?q=432719169,https://lappartementcoiffurebordeaux.com/,38 COURS GEORGES CLEMENCEAU 33000 BORDEAUX,44.84316,-0.578933
432758704,https://www.pappers.fr/recherche?q=432758704,Non renseigné,LA HUME 16 AV DU MAL DE LATTRE DE TASSIGNY 33470 GUJAN-MESTRAS,44.639238,-1.11565
432946903,https://www.pappers.fr/recherche?q=432946903,Non renseigné,5 ALLEE DE CAPSUS 33380 BIGANOS,44.637503,-0.983489
432990695,https://www.pappers.fr/recherche?q=432990695,Non renseigné,113 AVENUE DU HAILLAN 33160 SAINT-MEDARD-EN-JALLES,44.872704,-0.708681
433253812,https://www.pappers.fr/recherche?q=433253812,Non renseigné,25 RUE DE LA BASTE 33140 CADAUJAC,44.746962,-0.528263
433295821,https://www.pappers.fr/recherche?q=433295821,Non renseigné,2 PLACE DU CHP DE FOIRE 33240 SAINT-ANDRE-DE-CUBZAC,44.995075,-0.443614
433434321,https://www.pappers.fr/recherche?q=433434321,Non renseigné,"6, B AVENUE DU BARON HAUSSMANN 33610 CESTAS",44.741473,-0.683537
433434321,https://www.pappers.fr/recherche?q=433434321,Non renseigné,6 AVENUE DU BARON HAUSSMANN 33610 CESTAS,44.74141,-0.68306
433509551,https://www.pappers.fr/recherche?q=433509551,Non renseigné,131 RUE DE LA MARNE 33500 LIBOURNE,44.920728,-0.228393
433792082,https://www.pappers.fr/recherche?q=433792082,https://salon-evolutif.fr/,IMMEUBLE SAPHIR 10 AVENUE DE BOURRANVILLE 33700 MERIGNAC,44.839867,-0.629938
433999778,https://www.pappers.fr/recherche?q=433999778,Non renseigné,RUE DE LA FONTAINE 33240 SAINT-ANDRE-DE-CUBZAC,44.99775,-0.43779
434002275,https://www.pappers.fr/recherche?q=434002275,Non renseigné,RUE DU 19 MARS 1962 33920 SAINT-CHRISTOLY-DE-BLAYE,45.129341,-0.507476
434002275,https://www.pappers.fr/recherche?q=434002275,Non renseigné,ZONE  BELLEVUE OUEST 33710 PUGNAC,45.075917,-0.501842
434085551,https://www.pappers.fr/recherche?q=434085551,Non renseigné,10 CHEMIN DU TRONC 33380 BIGANOS,44.664665,-0.992247
434105771,https://www.pappers.fr/recherche?q=434105771,Non renseigné,LANTON,48.351991,-4.134706
434129474,https://www.pappers.fr/recherche?q=434129474,Non renseigné,96 COURS GAMBETTA 33400 TALENCE,44.817623,-0.585109
434137329,https://www.pappers.fr/recherche?q=434137329,https://valerie-graziano-coiffure.fr/,7 RUE DU DOCTEUR ROUX 33480 CASTELNAU-DE-MEDOC,45.026764,-0.800466
434209706,https://www.pappers.fr/recherche?q=434209706,Non renseigné,6-7 CCIAL P CHAMBERY BLOC1  RUE THIERS 33140 VILLENAVE-D'ORNON,44.763712,-0.563067
434386256,https://www.pappers.fr/recherche?q=434386256,Non renseigné,84 COURS DU GENERAL LECLERC 33210 LANGON,44.553451,-0.248108
434396339,https://www.pappers.fr/recherche?q=434396339,Non renseigné,AVENUE DE LA DAME BLANCHE 33320 LE TAILLAN-MEDOC,44.908004,-0.660692
434512638,https://www.pappers.fr/recherche?q=434512638,Non renseigné,SAINT-MEDARD-EN-JALLES,44.89163,-0.761713
434623039,https://www.pappers.fr/recherche?q=434623039,Non renseigné,CTRE CIAL SUPER U 12 ROUTE DE BORDEAUX 33660 SAINT-SEURIN-SUR-L'ISLE,45.014511,-0.015861
434826491,https://www.pappers.fr/recherche?q=434826491,Non renseigné,LD BARTASSIN 33430 LIGNAN-DE-BAZAS,44.431227,-0.266727
435322771,https://www.pappers.fr/recherche?q=435322771,Non renseigné,29 D CHEMIN DE LYZE 33380 BIGANOS,44.633151,-0.981923
435365986,https://www.pappers.fr/recherche?q=435365986,Non renseigné,9 PLACE GAMBETTA 33340 LESPARRE-MEDOC,45.307422,-0.940605
437553100,https://www.pappers.fr/recherche?q=437553100,Non renseigné,3 ALLEE DU PETIT VERDOT 33460 ARSAC,45.002723,-0.688896
437693252,https://www.pappers.fr/recherche?q=437693252,Non renseigné,SAINT-SULPICE-ET-CAMEYRAC,44.901959,-0.379383
437699895,https://www.pappers.fr/recherche?q=437699895,Non renseigné,2EME ETAGE 17 PASSAGE SARGET 33000 BORDEAUX,44.84241,-0.57633
437769540,https://www.pappers.fr/recherche?q=437769540,Non renseigné,51 ROUTE DE PARIS 33910 SAINT-DENIS-DE-PILE,44.991166,-0.206324
437866965,https://www.pappers.fr/recherche?q=437866965,Non renseigné,10 ROUTE DE CASTETS 33490 SAINT-MARTIN-DE-SESCAS,44.574011,-0.162077
437928013,https://www.pappers.fr/recherche?q=437928013,Non renseigné,RES LANDE DU GD HOUSTAOU 150 AVENUE DU MEDOC 33950 LEGE-CAP-FERRET,44.80982,-1.128307
437929854,https://www.pappers.fr/recherche?q=437929854,Non renseigné,27 RUE EDMOND COSTEDOAT 33000 BORDEAUX,44.831097,-0.578304
437962863,https://www.pappers.fr/recherche?q=437962863,Non renseigné,11 RUE BELLUS MAREILHAC 33200 BORDEAUX,44.85273,-0.616895
437981087,https://www.pappers.fr/recherche?q=437981087,Non renseigné,4 AVENUE DE VERDUN 33260 LA TESTE-DE-BUCH,44.633245,-1.150863
437981087,https://www.pappers.fr/recherche?q=437981087,Non renseigné,1 ROUTE DE CLOCHE 33380 MIOS,44.613038,-0.936316
437981087,https://www.pappers.fr/recherche?q=437981087,Non renseigné,23 ROUTE DES LACS 33380 BIGANOS,44.634775,-0.964234
438152985,https://www.pappers.fr/recherche?q=438152985,Non renseigné,14 AVENUE DE LA LIBERATION 33380 MIOS,44.605355,-0.936245
438177057,https://www.pappers.fr/recherche?q=438177057,Non renseigné,17 AVENUE CHARLES DE GAULLE 33200 BORDEAUX,44.84857,-0.598229
438272643,https://www.pappers.fr/recherche?q=438272643,Non renseigné,CTRE CIAL HYPER CHAMPION 172 RUE JULES FERRY 33200 BORDEAUX,44.844563,-0.610046
438272643,https://www.pappers.fr/recherche?q=438272643,Non renseigné,85 AVENUE DU CHATEAU D'EAU 33700 MERIGNAC,44.854187,-0.655279
438446965,https://www.pappers.fr/recherche?q=438446965,Non renseigné,BASSIN A FLOT N2 2 COURS HENRI BRUNET 33300 BORDEAUX,44.869823,-0.555729
438464810,https://www.pappers.fr/recherche?q=438464810,Non renseigné,2 RUE DE DAUGERE 33520 BRUGES,44.883778,-0.593608
438551368,https://www.pappers.fr/recherche?q=438551368,Non renseigné,JARDINS DE GAMBETTA 74 RUE GEORGES BONNAC 33000 BORDEAUX,44.839794,-0.585576
438552218,https://www.pappers.fr/recherche?q=438552218,Non renseigné,130 RUE DE LA REPUBLIQUE 33230 SAINT-MEDARD-DE-GUIZIERES,45.016005,-0.059966
438616583,https://www.pappers.fr/recherche?q=438616583,https://esprit-creation-coiffure.fr/,2 RUE GAMBETTA 33230 COUTRAS,45.041109,-0.130292
438686933,https://www.pappers.fr/recherche?q=438686933,Non renseigné,16 RUE WINSTON CHURCHILL 33700 MERIGNAC,44.83434,-0.627303
438703233,https://www.pappers.fr/recherche?q=438703233,https://salon10emeart.com/,LOT N0 4 45 AVENUE DE L??ENTRE 2 MERS 33670 CREON,44.771877,-0.337172
438854242,https://www.pappers.fr/recherche?q=438854242,Non renseigné,37 RUE MAL DE LATTRE DE TASSIGNY 33120 ARCACHON,44.66036,-1.172739
438986515,https://www.pappers.fr/recherche?q=438986515,Non renseigné,3 AVENUE DU LAC 33990 HOURTIN,45.185608,-1.059022
439123894,https://www.pappers.fr/recherche?q=439123894,Non renseigné,558 ROUTE DE TOULOUSE 33140 VILLENAVE-D'ORNON,44.782555,-0.565948
439195207,https://www.pappers.fr/recherche?q=439195207,Non renseigné,407 ROUTE DE TOULOUSE 33140 VILLENAVE-D'ORNON,44.793453,-0.567564
439315037,https://www.pappers.fr/recherche?q=439315037,Non renseigné,5 CHEMIN DU LAVOIR 33550 CAPIAN,44.709756,-0.329577
439387515,https://www.pappers.fr/recherche?q=439387515,Non renseigné,51 AVENUE DE L'OCEAN 33930 VENDAYS-MONTALIVET,45.378535,-1.15332
439450131,https://www.pappers.fr/recherche?q=439450131,https://couleur-salon.com/,32 RUE DE LARTIGOTTE 33360 CARIGNAN-DE-BORDEAUX,44.811134,-0.477353
439752676,https://www.pappers.fr/recherche?q=439752676,Non renseigné,5 LIEU DIT POURAILLET 33490 SAINT-MARTIN-DE-SESCAS,44.584257,-0.157253
439932336,https://www.pappers.fr/recherche?q=439932336,Non renseigné,2 PLACE ALBERT DESPUJOLS 33370 ARTIGUES-PRES-BORDEAUX,44.86085,-0.490616
440076339,https://www.pappers.fr/recherche?q=440076339,Non renseigné,CTRE COMMERCIAL LE LAVOIR  RUE JEAN MERMOZ 33127 MARTIGNAS-SUR-JALLE,44.841889,-0.775532
440203982,https://www.pappers.fr/recherche?q=440203982,Non renseigné,16 RUE PIERRE DIGNAC 33260 LA TESTE-DE-BUCH,44.63178,-1.147727
440339471,https://www.pappers.fr/recherche?q=440339471,Non renseigné,LOCAL N  23 71 RUE DES FONDERIES 33380 BIGANOS,44.638123,-0.95822
440339471,https://www.pappers.fr/recherche?q=440339471,Non renseigné,"CENTRE COMMERCIAL GEANT CASINO 1, T AVENUE GUSTAVE EIFFEL 33600 PESSAC",44.785927,-0.64056
440339471,https://www.pappers.fr/recherche?q=440339471,Non renseigné,C/CIAL AUCHAN 31 RUE DES FONDERIES 33380 BIGANOS,44.638762,-0.960393
440339471,https://www.pappers.fr/recherche?q=440339471,Non renseigné,CENTRE COMMERCIAL LES OCEANIDES  LANDE DES DEUX CRASTES 33260 LA TESTE-DE-BUCH,44.613526,-1.118067
440339471,https://www.pappers.fr/recherche?q=440339471,Non renseigné,C/CIAL LECLERC LES OCEANIDES  AVENUE DE L??EUROPE 33260 LA TESTE-DE-BUCH,44.617031,-1.118927
440339471,https://www.pappers.fr/recherche?q=440339471,Non renseigné,RTE CASTILLON - CC LE VERDET 102 AVENUE DU GENERAL DE GAULLE 33500 LIBOURNE,44.901162,-0.220968
440339471,https://www.pappers.fr/recherche?q=440339471,Non renseigné,CENTRE COMMERCIAL MERIGNAC SOLEIL  AVENUE DE LA SOMME 33700 MERIGNAC,44.8299,-0.661679
440339471,https://www.pappers.fr/recherche?q=440339471,Non renseigné,CENTRE COMMERCIAL  AVENUE DES QUARANTE JOURNAUX 33300 BORDEAUX,44.881525,-0.569989
440339471,https://www.pappers.fr/recherche?q=440339471,Non renseigné,RUE CAP OCEAN 33260 LA TESTE-DE-BUCH,44.637482,-1.153667
440339471,https://www.pappers.fr/recherche?q=440339471,Non renseigné,"C/CIAL GRAND TOUR  LD ""LES PLACES"" 33560 SAINTE-EULALIE",44.908965,-0.477476
440422665,https://www.pappers.fr/recherche?q=440422665,https://by-lydia.fr/,8 RUE DU MIRAIL 33000 BORDEAUX,44.834557,-0.571186
440423689,https://www.pappers.fr/recherche?q=440423689,Non renseigné,9 CHEMIN DES ACACIAS 33650 SAUCATS,44.65446,-0.596355
440423689,https://www.pappers.fr/recherche?q=440423689,Non renseigné,"1, T CHE DE LAGUES 33650 SAUCATS",44.654751,-0.596194
440426468,https://www.pappers.fr/recherche?q=440426468,Non renseigné,LUSSAN 4 ROUTE DU GARDIEU 33340 ORDONNAC,45.299642,-0.838873
440453660,https://www.pappers.fr/recherche?q=440453660,Non renseigné,19 RUE TROUCHE 33780 SOULAC-SUR-MER,45.513578,-1.124492
440560795,https://www.pappers.fr/recherche?q=440560795,Non renseigné,822 AVENUE DE LA LIBERTE 33820 SAINT-AUBIN-DE-BLAYE,45.26708,-0.560391
440642304,https://www.pappers.fr/recherche?q=440642304,Non renseigné,31 RUE MONTESQUIEU 33650 LA BREDE,44.680464,-0.528917
440666519,https://www.pappers.fr/recherche?q=440666519,Non renseigné,4 AVENUE DE MERIGNAC 33700 MERIGNAC,44.838524,-0.620884
440844470,https://www.pappers.fr/recherche?q=440844470,Non renseigné,BAT PRIMEVERE APPT 73  RUE DU DOCTEUR ROGER ROMEFORT 33520 BRUGES,44.869392,-0.581264
440894772,https://www.pappers.fr/recherche?q=440894772,Non renseigné,26 RUE DE LA GRAVETTE 33620 CUBNEZAIS,45.074172,-0.408816
441016474,https://www.pappers.fr/recherche?q=441016474,Non renseigné,114 AVENUE PASTEUR 33185 LE HAILLAN,44.87051,-0.675125
441321155,https://www.pappers.fr/recherche?q=441321155,Non renseigné,14 RUE LAMARTINE 33140 VILLENAVE-D'ORNON,44.762222,-0.584936
441340411,https://www.pappers.fr/recherche?q=441340411,Non renseigné,4 CHEMIN DE L??ISLE 33670 SADIRAC,44.783717,-0.40077
441612801,https://www.pappers.fr/recherche?q=441612801,Non renseigné,AVENUE HUET 33138 LANTON,44.721014,-1.048581
441828100,https://www.pappers.fr/recherche?q=441828100,Non renseigné,2 RUE FERDINAND LAFARGUE 33780 SOULAC-SUR-MER,45.515274,-1.125761
441857968,https://www.pappers.fr/recherche?q=441857968,Non renseigné,ZI FRIMONT DEPARTEMENTALE 113  L EMFUME 33190 LA REOLE,44.583518,-0.055874
441982469,https://www.pappers.fr/recherche?q=441982469,Non renseigné,1230 RUE DE MONS 33210 SAINT-PIERRE-DE-MONS,44.551147,-0.224164
442157194,https://www.pappers.fr/recherche?q=442157194,Non renseigné,33 PLACE DE LA CINQUIEME REPUBLIQUE 33600 PESSAC,44.805739,-0.631007
442252185,https://www.pappers.fr/recherche?q=442252185,https://cjv-coiffure.com/,360 AVENUE THIERS 33100 BORDEAUX,44.848937,-0.552606
442314696,https://www.pappers.fr/recherche?q=442314696,Non renseigné,2 AVENUE DU BAS VALLON 33980 AUDENGE,44.678247,-1.007926
442354338,https://www.pappers.fr/recherche?q=442354338,Non renseigné,PL SANTA CRUZ DE BEZANA 33127 MARTIGNAS SUR JALLE,44.83691,-0.778805
442380358,https://www.pappers.fr/recherche?q=442380358,Non renseigné,12 RUE DANIEL SIBASSIE 33320 EYSINES,44.88585,-0.65846
442582334,https://www.pappers.fr/recherche?q=442582334,Non renseigné,"85, T RUE DEJEAN CASTAING 33470 GUJAN-MESTRAS",44.628985,-1.104018
442991428,https://www.pappers.fr/recherche?q=442991428,Non renseigné,21 AVENUE DU GENERAL LECLERC 33680 LACANAU,45.005622,-1.196947
443009055,https://www.pappers.fr/recherche?q=443009055,Non renseigné,9 COURS DU PORT 33390 BLAYE,45.125791,-0.664084
443104369,https://www.pappers.fr/recherche?q=443104369,https://sophie-coiffure-mixte.fr/,LE BOURG  ROUTE DE MORILLON 33360 CAMBLANES-ET-MEYNAC,44.764568,-0.481405
443288766,https://www.pappers.fr/recherche?q=443288766,Non renseigné,"15, T ROUTE DU GAT MORT 33650 CABANAC-ET-VILLAGRAINS",44.571594,-0.595451
443379631,https://www.pappers.fr/recherche?q=443379631,Non renseigné,60 AVENUE DE LA LIBERATION 33360 LATRESNE,44.785511,-0.49703
443443866,https://www.pappers.fr/recherche?q=443443866,Non renseigné,44 PL DE SARDINE 33600 PESSAC,44.79533,-0.640487
443472931,https://www.pappers.fr/recherche?q=443472931,Non renseigné,RUE DES JARDINS 33790 PELLEGRUE,44.742829,0.074568
443510730,https://www.pappers.fr/recherche?q=443510730,Non renseigné,"85, B AVENUE BLAISE PASCAL 33160 SAINT-MEDARD-EN-JALLES",44.895893,-0.773906
443515911,https://www.pappers.fr/recherche?q=443515911,Non renseigné,43 CHEMIN DE COUVERTAIRE 33450 SAINT-LOUBES,44.91706,-0.452194
443602420,https://www.pappers.fr/recherche?q=443602420,Non renseigné,LIBOURNE,44.920384,-0.226836
443647573,https://www.pappers.fr/recherche?q=443647573,Non renseigné,PL. DE LEGLISE- CTE CIAL CLOS FAVOL 6 RUE DU 11 NOVEMBRE 33560 CARBON-BLANC,44.896086,-0.500968
443661780,https://www.pappers.fr/recherche?q=443661780,Non renseigné,RESIDENCE TOULOUSE LAUTREC 209 BOULEVARD DE LA PLAGE 33120 ARCACHON,44.662429,-1.17085
443782560,https://www.pappers.fr/recherche?q=443782560,Non renseigné,16 RUE DES CERISIERS 33210 SAINT-PIERRE-DE-MONS,44.551623,-0.226401
443827795,https://www.pappers.fr/recherche?q=443827795,Non renseigné,67 AVENUE DE LA BREDE 33850 LEOGNAN,44.722634,-0.588737
443986468,https://www.pappers.fr/recherche?q=443986468,Non renseigné,4 ALLEE DES BOUVREUILS 33950 LEGE-CAP-FERRET,44.702053,-1.231461
444027031,https://www.pappers.fr/recherche?q=444027031,Non renseigné,6 LD LE BOURG C 33124 SAVIGNAC,44.522606,-0.110422
444110605,https://www.pappers.fr/recherche?q=444110605,Non renseigné,3 LOT LES ALBIZZIAS 33440 AMBARES-ET-LAGRAVE,44.9347,-0.507991
444244321,https://www.pappers.fr/recherche?q=444244321,Non renseigné,3 IMP MOZART 33185 LE HAILLAN,44.875145,-0.677118
444327993,https://www.pappers.fr/recherche?q=444327993,Non renseigné,3 RUE DE L??EGLISE 33710 GAURIAC,45.063914,-0.616143
444449433,https://www.pappers.fr/recherche?q=444449433,Non renseigné,LE BOUSCAT,44.864761,-0.599933
444657217,https://www.pappers.fr/recherche?q=444657217,Non renseigné,2 RUE JEAN LARREY 33270 FLOIRAC,44.833565,-0.529529
444713010,https://www.pappers.fr/recherche?q=444713010,Non renseigné,6 ALL DE BACQUET 33160 SAINT MEDARD EN JALLES,44.90242,-0.745223
444904957,https://www.pappers.fr/recherche?q=444904957,Non renseigné,64 RUE DU LOUP 33000 BORDEAUX,44.837906,-0.57447
444950315,https://www.pappers.fr/recherche?q=444950315,Non renseigné,25 BOULEVARD DE LADONNE 33600 PESSAC,44.79745,-0.638886
445052145,https://www.pappers.fr/recherche?q=445052145,https://feeling-coiffure-par-pierre.fr/,14 RUE JULES FERRY 33210 LANGON,44.550485,-0.250851
445217300,https://www.pappers.fr/recherche?q=445217300,Non renseigné,16 CHEMIN DE JEAN PAN 33450 SAINT-LOUBES,44.899476,-0.438138
447743501,https://www.pappers.fr/recherche?q=447743501,Non renseigné,17 ALLEE LE CLOS DES CERISIERS 33640 AYGUEMORTE-LES-GRAVES,44.707771,-0.476028
447754557,https://www.pappers.fr/recherche?q=447754557,Non renseigné,RESIDENCE LA FORESTIERE  RUE DES CORMORANS 33950 LEGE-CAP-FERRET,44.705915,-1.224093
447798554,https://www.pappers.fr/recherche?q=447798554,Non renseigné,3 RUE BRETAGNE 33820 VAL-DE-LIVENNE,45.282376,-0.560489
447848946,https://www.pappers.fr/recherche?q=447848946,Non renseigné,32 RUE DU PYS 33460 ARSAC,45.000722,-0.696113
447915323,https://www.pappers.fr/recherche?q=447915323,Non renseigné,CENTRE COMMERCIAL 8 SQUARE DES BRUYERES 33520 BRUGES,44.882763,-0.612864
448237974,https://www.pappers.fr/recherche?q=448237974,Non renseigné,17 RUE FELIX ARNAUDIN 33980 AUDENGE,44.692161,-0.993716
448240036,https://www.pappers.fr/recherche?q=448240036,https://coiffure-domicile-libourne.fr/,6 LAPOURCAUD 33570 TAYAC,44.963772,-0.037242
448299610,https://www.pappers.fr/recherche?q=448299610,Non renseigné,APPT4 10 RUE DU GENERAL DU PREUILH 33460 MACAU,45.008054,-0.614947
448371336,https://www.pappers.fr/recherche?q=448371336,Non renseigné,"2, A RUE DU MAL FOCH 33115 LA TESTE DE BUCH",44.641725,-1.190563
448380295,https://www.pappers.fr/recherche?q=448380295,Non renseigné,MARTILLAC,44.725144,-0.554606
448435941,https://www.pappers.fr/recherche?q=448435941,Non renseigné,MACAU,44.99743,-0.611365
448511220,https://www.pappers.fr/recherche?q=448511220,Non renseigné,AUDENGE,44.6981,-0.96155
448592063,https://www.pappers.fr/recherche?q=448592063,Non renseigné,53 RUE DU PORT 33380 BIGANOS,44.644916,-0.992244
448605386,https://www.pappers.fr/recherche?q=448605386,Non renseigné,7 IMPASSE DES CERISIERS 33240 CUBZAC-LES-PONTS,44.974246,-0.460598
448752154,https://www.pappers.fr/recherche?q=448752154,Non renseigné,RES RIVE OCEANE BAT A  APP 8  CHEMIN DE CAMASSON 33590 SAINT-VIVIEN-DE-MEDOC,45.43124,-1.031588
448855767,https://www.pappers.fr/recherche?q=448855767,https://celine-millas-coiffure.fr/,20 PLACE DU GENERAL DE GAULLE 33210 LANGON,44.55321,-0.246355
448890079,https://www.pappers.fr/recherche?q=448890079,Non renseigné,"6, B AV CTRE COMMERCIAL CELLULE 12 33114 LE BARP",44.605162,-0.778765
449014489,https://www.pappers.fr/recherche?q=449014489,Non renseigné,101 RUE DE LA BENAUGE 33100 BORDEAUX,44.8404,-0.554213
449095843,https://www.pappers.fr/recherche?q=449095843,https://coiffeurbio-bordeaux.fr/,1 IMPASSE DES ECUREUILS 33160 SAINT-AUBIN-DE-MEDOC,44.92063,-0.715516
449095843,https://www.pappers.fr/recherche?q=449095843,https://coiffeurbio-bordeaux.fr/,CENTRE CIAL JEAN DUVERT 155 AVENUE DU 11 NOVEMBRE 33290 BLANQUEFORT,44.917843,-0.628034
449121920,https://www.pappers.fr/recherche?q=449121920,Non renseigné,RES LE COLISEE LOT 54 4 PLACE JEAN HAMEAU 33260 LA TESTE-DE-BUCH,44.632794,-1.145737
449242072,https://www.pappers.fr/recherche?q=449242072,Non renseigné,90 COURS VICTOR HUGO 33130 BEGLES,44.81004,-0.562657
449280437,https://www.pappers.fr/recherche?q=449280437,Non renseigné,69 COURS D'ALBRET 33000 BORDEAUX,44.83551,-0.580832
449280437,https://www.pappers.fr/recherche?q=449280437,Non renseigné,31 ALLEE SERR 33100 BORDEAUX,44.842346,-0.559434
449374636,https://www.pappers.fr/recherche?q=449374636,Non renseigné,219 RUE MANDRON 33000 BORDEAUX,44.857105,-0.586492
449629278,https://www.pappers.fr/recherche?q=449629278,Non renseigné,66 BOULEVARD JULES SIMON 33100 BORDEAUX,44.843931,-0.54695
449650357,https://www.pappers.fr/recherche?q=449650357,Non renseigné,AVENUE DE LA LIBERATION 33490 SAINT-PIERRE-D'AURILLAC,44.571715,-0.191009
449672047,https://www.pappers.fr/recherche?q=449672047,Non renseigné,CITE PONT-NEAU 51 RUE JEAN MOULIN 33380 BIGANOS,44.635298,-0.962848
449745074,https://www.pappers.fr/recherche?q=449745074,Non renseigné,23 BOULEVARD BEAUSEJOUR 33500 LIBOURNE,44.925314,-0.23794
449835974,https://www.pappers.fr/recherche?q=449835974,Non renseigné,LE POUYALET 25 ROUTE DE BORDEAUX 33250 PAUILLAC,45.215138,-0.764563
450115506,https://www.pappers.fr/recherche?q=450115506,Non renseigné,8 RUE JEAN PAUL ALAUX 33100 BORDEAUX,44.843807,-0.563746
450182662,https://www.pappers.fr/recherche?q=450182662,Non renseigné,SAINTE-TERRE,44.832368,-0.117434
450190731,https://www.pappers.fr/recherche?q=450190731,Non renseigné,10 PLACE PUY PAULIN 33000 BORDEAUX,44.84135,-0.575689
450342787,https://www.pappers.fr/recherche?q=450342787,Non renseigné,1 PLACE SAINT MARTIN 33570 MONTAGNE,44.930229,-0.129245
450440128,https://www.pappers.fr/recherche?q=450440128,Non renseigné,96 AVENUE DE LA REPUBLIQUE 33820 SAINT-CIERS-SUR-GIRONDE,45.290573,-0.610802
450493408,https://www.pappers.fr/recherche?q=450493408,Non renseigné,"5, B AV DU GAL DE GAULLE 33720 VIRELADE",44.660476,-0.37697
450524459,https://www.pappers.fr/recherche?q=450524459,https://lineacoiffure.com/,AVENUE DU DOCTEUR ALBERT SCHWEITZER 33600 PESSAC,44.801707,-0.615419
450601489,https://www.pappers.fr/recherche?q=450601489,Non renseigné,1 RUE CHARLES CHAPLIN 33160 SAINT-MEDARD-EN-JALLES,44.887306,-0.74113
450767785,https://www.pappers.fr/recherche?q=450767785,Non renseigné,"11, B GRAND'RUE 33250 SAINT-JULIEN-BEYCHEVELLE",45.148469,-0.747614
450777842,https://www.pappers.fr/recherche?q=450777842,Non renseigné,41 AVENUE DU GENERAL DE GAULLE 33120 ARCACHON,44.659883,-1.165227
450805569,https://www.pappers.fr/recherche?q=450805569,Non renseigné,"9, T RUE DU TARREY D AILLABAU 33440 AMBARES-ET-LAGRAVE",44.95169,-0.488855
450824529,https://www.pappers.fr/recherche?q=450824529,Non renseigné,41 BOULEVARD LAREGNERE 33220 SAINTE-FOY-LA-GRANDE,44.840166,0.221528
450843222,https://www.pappers.fr/recherche?q=450843222,Non renseigné,389 ROUTE DE LAPOUYADE 33620 LARUSCADE,45.106543,-0.33594
451164875,https://www.pappers.fr/recherche?q=451164875,Non renseigné,204 RUE SAINTE-CATHERINE 33000 BORDEAUX,44.83405,-0.573158
451557938,https://www.pappers.fr/recherche?q=451557938,Non renseigné,124 IMPASSE DES BARRAILS 33210 BIEUJAC,44.535871,-0.121305
451557946,https://www.pappers.fr/recherche?q=451557946,Non renseigné,6 CHEMIN DE CHAUDRON 33710 TEUILLAC,45.100507,-0.552584
451569347,https://www.pappers.fr/recherche?q=451569347,Non renseigné,27 RUE PLINE - PARMENTIER 33500 LIBOURNE,44.917325,-0.238156
451651012,https://www.pappers.fr/recherche?q=451651012,Non renseigné,8 ALLEES ROBERT BOULIN 33500 LIBOURNE,44.918129,-0.241929
451695548,https://www.pappers.fr/recherche?q=451695548,Non renseigné,101 CRS DU QUATORZE JUILLET 33210 LANGON,44.548766,-0.247506
451819783,https://www.pappers.fr/recherche?q=451819783,Non renseigné,72 RUE LECOCQ 33000 BORDEAUX,44.834507,-0.585457
451952014,https://www.pappers.fr/recherche?q=451952014,Non renseigné,25 PLACE JEAN JAURES 33700 MERIGNAC,44.850876,-0.644742
451992069,https://www.pappers.fr/recherche?q=451992069,Non renseigné,LOT DU BOIS ST YVES 27 RUE DES SOUCHETS 33980 AUDENGE,44.694135,-1.001701
452058647,https://www.pappers.fr/recherche?q=452058647,Non renseigné,"46, B ALLEE DES GRIVES 33470 GUJAN-MESTRAS",44.634089,-1.054479
452130438,https://www.pappers.fr/recherche?q=452130438,Non renseigné,30 GRAND RUE 33570 MONTAGNE,44.93017,-0.1302
452432511,https://www.pappers.fr/recherche?q=452432511,Non renseigné,39 RUE AUGUSTINOT 33360 LATRESNE,44.785962,-0.486275
452457328,https://www.pappers.fr/recherche?q=452457328,Non renseigné,3 LD PEYRUC 33840 LERM-ET-MUSSET,44.332347,-0.152107
452608813,https://www.pappers.fr/recherche?q=452608813,https://salon-lessentiel.fr/,98 COURS DU GENERAL DE GAULLE 33170 GRADIGNAN,44.774036,-0.61301
452690712,https://www.pappers.fr/recherche?q=452690712,Non renseigné,32 RUE VICTOR HUGO 33260 LA TESTE-DE-BUCH,44.632806,-1.148918
452706351,https://www.pappers.fr/recherche?q=452706351,Non renseigné,CENTRE COM DES MIQUELOTS 33115 LA TESTE-DE-BUCH,44.623956,-1.198666
452756166,https://www.pappers.fr/recherche?q=452756166,Non renseigné,CTRE CIAL DES ECUS  AV DE LA LIBERATION 33110 LE BOUSCAT,44.86113,-0.60116
452916364,https://www.pappers.fr/recherche?q=452916364,Non renseigné,63 RUE DE LA REPUBLIQUE 33230 SAINT-MEDARD-DE-GUIZIERES,45.014954,-0.055809
453194193,https://www.pappers.fr/recherche?q=453194193,Non renseigné,23 COURS VICTOR HUGO 33130 BEGLES,44.812065,-0.564385
453194235,https://www.pappers.fr/recherche?q=453194235,Non renseigné,625 ROUTE DES PHILIPPONS 33220 SAINT-ANDRE-ET-APPELLES,44.814519,0.174141
453287088,https://www.pappers.fr/recherche?q=453287088,Non renseigné,48 ROUTE DU LION 33680 LACANAU,44.993247,-1.197577
453319329,https://www.pappers.fr/recherche?q=453319329,Non renseigné,CESTAS,44.737498,-0.705264
453378002,https://www.pappers.fr/recherche?q=453378002,Non renseigné,29 AVENUE DE LA PLAGE 33740 ARES,44.76478,-1.141251
453404568,https://www.pappers.fr/recherche?q=453404568,Non renseigné,11 PLACE DE LA LIBERTE 33160 SAINT-MEDARD-EN-JALLES,44.88835,-0.701999
453551798,https://www.pappers.fr/recherche?q=453551798,Non renseigné,"APPAT C106 1, B LIEU DIT FONCROSE 33540 SAUVETERRE-DE-GUYENNE",44.718886,-0.081792
453775090,https://www.pappers.fr/recherche?q=453775090,Non renseigné,17 PLACE DE STALINGRAD 33100 BORDEAUX,44.84028,-0.558845
454000266,https://www.pappers.fr/recherche?q=454000266,https://coiffeuseadomicile33.fr/,34 CHEMIN DE SIRON 33670 SADIRAC,44.797036,-0.382027
454032152,https://www.pappers.fr/recherche?q=454032152,Non renseigné,82 RUE PIERRE MENDES FRANCE 33530 BASSENS,44.913185,-0.51133
467111449,https://www.pappers.fr/recherche?q=467111449,Non renseigné,AVENUE DE PARIS 33620 CAVIGNAC,45.103426,-0.386879
468100169,https://www.pappers.fr/recherche?q=468100169,Non renseigné,72 COURS DE L'YSER 33800 BORDEAUX,44.82708,-0.569038
470105503,https://www.pappers.fr/recherche?q=470105503,Non renseigné,RUE GILBERT CAUDERAN 33320 EYSINES,44.882799,-0.63364
477482210,https://www.pappers.fr/recherche?q=477482210,Non renseigné,ZONE COMMERCIALE CARREFOUR 2 ROUTE DE PREIGNAC 33730 NOAILLAN,44.479717,-0.366613
477810113,https://www.pappers.fr/recherche?q=477810113,Non renseigné,30 AVENUE JEAN JAURES 33240 LUGON-ET-L'ILE-DU-CARNAY,44.95468,-0.345823
477815666,https://www.pappers.fr/recherche?q=477815666,Non renseigné,GALERIE MARCHANDE 33370 TRESSES,44.848004,-0.463165
477924963,https://www.pappers.fr/recherche?q=477924963,Non renseigné,CENTRE COMMERCIAL LA FERRIERE  GALERIE MARCHANDE 33670 CREON,49.72456,1.459514
478168644,https://www.pappers.fr/recherche?q=478168644,Non renseigné,RESIDENCE LA ROTONDE  PL DU QUATORZE JUILLET 33510 ANDERNOS-LES-BAINS,44.742654,-1.097063
478185531,https://www.pappers.fr/recherche?q=478185531,https://colors-by.com/,STE CATHERINE 4 RUE DU PARLEMENT SAINTE-CATHERINE 33000 BORDEAUX,44.84057,-0.572506
478210461,https://www.pappers.fr/recherche?q=478210461,Non renseigné,"4, B IMPASSE FERRAT 33470 GUJAN-MESTRAS",44.635585,-1.06345
478476419,https://www.pappers.fr/recherche?q=478476419,Non renseigné,CTRE CIAL LE CLOS MONTESQU  AVENUE DE BOURRANVILLE 33700 MERIGNAC,44.843301,-0.632087
478598287,https://www.pappers.fr/recherche?q=478598287,Non renseigné,RESIDENCE LA FORET 47 RUE DES ALOUETTES 33114 LE BARP,44.607404,-0.771122
478605025,https://www.pappers.fr/recherche?q=478605025,Non renseigné,RES MONDRIAN GIACOMETTI APPARTEMENT 36 RUE BIR HAKEIM 33700 MERIGNAC,44.833378,-0.625527
478692726,https://www.pappers.fr/recherche?q=478692726,Non renseigné,101 ROUTE NATIONALE 33190 GIRONDE-SUR-DROPT,44.584781,-0.082949
478720584,https://www.pappers.fr/recherche?q=478720584,Non renseigné,LAGORCE,46.122315,1.259865
478876303,https://www.pappers.fr/recherche?q=478876303,Non renseigné,134 RUE FRANCOIS DE SOURDIS 33000 BORDEAUX,44.831314,-0.587315
478881600,https://www.pappers.fr/recherche?q=478881600,Non renseigné,17 ROUTE DE BAYONNE 33830 BELIN-BELIET,44.492116,-0.791586
478920788,https://www.pappers.fr/recherche?q=478920788,Non renseigné,3 LD LD LA BASTIDE NORD 33190 LOUPIAC-DE-LA-REOLE,44.554776,-0.043737
478922974,https://www.pappers.fr/recherche?q=478922974,Non renseigné,53 AVENUE CHARLES DE GAULLE 33520 BRUGES,44.879734,-0.614365
478942840,https://www.pappers.fr/recherche?q=478942840,Non renseigné,19 RUE JEAN-JACQUES ROUSSEAU 33000 BORDEAUX,44.844055,-0.577836
478975774,https://www.pappers.fr/recherche?q=478975774,Non renseigné,18 AVENUE GUSTAVE EIFFEL 33510 ANDERNOS-LES-BAINS,44.766481,-1.070896
478975782,https://www.pappers.fr/recherche?q=478975782,Non renseigné,RESIDENCE LES CHENES DU MILAN 42 RUE VASSILY KANDINSKY 33650 SAINT-MEDARD-D'EYRANS,44.712843,-0.514632
479070831,https://www.pappers.fr/recherche?q=479070831,Non renseigné,10 PLACE DE LA VICTOIRE 33560 SAINTE-EULALIE,44.907901,-0.471846
479070856,https://www.pappers.fr/recherche?q=479070856,Non renseigné,8 CHEMIN DES PEYREYRES 33320 LE TAILLAN-MEDOC,44.91307,-0.660501
479196107,https://www.pappers.fr/recherche?q=479196107,Non renseigné,53 AVENUE CHARLES DE GAULLE 33520 BRUGES,44.879734,-0.614365
479315699,https://www.pappers.fr/recherche?q=479315699,Non renseigné,5 PLACE DU REY 33390 PLASSAC,45.10265,-0.643876
479598609,https://www.pappers.fr/recherche?q=479598609,https://coiffeur-lesparre.fr/,57 COURS DU GENERAL DE GAULLE 33340 LESPARRE-MEDOC,45.309856,-0.939791
479615205,https://www.pappers.fr/recherche?q=479615205,Non renseigné,53 RUE DU 11 NOVEMBRE 1918 33720 BARSAC,44.608528,-0.315835
479839532,https://www.pappers.fr/recherche?q=479839532,Non renseigné,AU BOURG  RTE NATIONALE 250 33380 MARCHEPRIME,44.685662,-0.866428
479923955,https://www.pappers.fr/recherche?q=479923955,Non renseigné,CTRE COM LES BOUTIQUES DE  CHEMIN DES BOUTIQUES 33610 CESTAS,44.739748,-0.679741
480146141,https://www.pappers.fr/recherche?q=480146141,https://florence-coiffure-artigues.com/,61 RUE DU MOULIN D'ANTOUNE 33370 ARTIGUES-PRES-BORDEAUX,44.874107,-0.499547
480322924,https://www.pappers.fr/recherche?q=480322924,Non renseigné,7 RUE JOSEPH LAHENS 33112 SAINT-LAURENT-MEDOC,45.152741,-0.819659
480428267,https://www.pappers.fr/recherche?q=480428267,Non renseigné,4 AVENUE DU GENERAL LECLERC 33000 BORDEAUX,44.85104,-0.606921
480436179,https://www.pappers.fr/recherche?q=480436179,Non renseigné,94 RUE GUY DE MAUPASSANT 33127 SAINT-JEAN-D'ILLAC,44.810415,-0.795759
480561372,https://www.pappers.fr/recherche?q=480561372,Non renseigné,135 BOULEVARD DU PRESIDENT FRANKLIN ROOSEVELT 33400 TALENCE,44.817177,-0.576709
480594266,https://www.pappers.fr/recherche?q=480594266,Non renseigné,4 IMPASSE BATAILLERE 33710 BOURG,45.039152,-0.558247
480810977,https://www.pappers.fr/recherche?q=480810977,Non renseigné,46 LOT VILLAGE DES PINS 22 ALLEE DES FRAGONS 33470 GUJAN-MESTRAS,44.617409,-1.112112
480834894,https://www.pappers.fr/recherche?q=480834894,Non renseigné,101 COURS VICTOR HUGO 33130 BEGLES,44.80973,-0.562619
480843978,https://www.pappers.fr/recherche?q=480843978,Non renseigné,85 AVENUE DU CHATEAU D'EAU 33700 MERIGNAC,44.854187,-0.655279
481499820,https://www.pappers.fr/recherche?q=481499820,Non renseigné,HAMEAU EGLISE ROMANE 74 BOULEVARD DES OISEAUX 33370 ARTIGUES-PRES-BORDEAUX,44.861034,-0.500316
481800803,https://www.pappers.fr/recherche?q=481800803,Non renseigné,BORDEAUX,44.851897,-0.587877
481907632,https://www.pappers.fr/recherche?q=481907632,Non renseigné,"11, B PLACE LOUIS BARTHOU 33000 BORDEAUX",44.821735,-0.582709
481907632,https://www.pappers.fr/recherche?q=481907632,Non renseigné,50 COURS VICTOR HUGO 33130 BEGLES,44.811356,-0.563672
481907632,https://www.pappers.fr/recherche?q=481907632,Non renseigné,78 AVENUE DE MAGUDAS 33700 MERIGNAC,44.856422,-0.652693
481907640,https://www.pappers.fr/recherche?q=481907640,Non renseigné,DOMAINE DU MOULIN 15 RUE DES CYGNES 33450 IZON,44.921841,-0.375746
481921542,https://www.pappers.fr/recherche?q=481921542,Non renseigné,APPT 17 4 RUE JULES VERNE 33530 BASSENS,44.89956,-0.51564
482197340,https://www.pappers.fr/recherche?q=482197340,Non renseigné,5 ESPLANADE CHARLES DE GAULLE 33600 PESSAC,44.804966,-0.631931
482280542,https://www.pappers.fr/recherche?q=482280542,Non renseigné,4 RUE DU BAILLOT 33290 LUDON-MEDOC,44.978241,-0.605291
482352739,https://www.pappers.fr/recherche?q=482352739,Non renseigné,5 PLACE DU 8 MAI 1945 33380 MIOS,44.605958,-0.938311
482405966,https://www.pappers.fr/recherche?q=482405966,Non renseigné,4 ETAGE 62 COURS GEORGES CLEMENCEAU 33000 BORDEAUX,44.844078,-0.578368
482434008,https://www.pappers.fr/recherche?q=482434008,https://expression-coiffure.fr/,"7, B AV DU GAL DE GAULLE 33650 MARTILLAC",44.712893,-0.543237
482434065,https://www.pappers.fr/recherche?q=482434065,Non renseigné,29 RUE DE LA PORTE DE LA MONNAIE 33800 BORDEAUX,44.832153,-0.563168
482469533,https://www.pappers.fr/recherche?q=482469533,Non renseigné,"57, B COURS DE LA MARTINIQUE 33000 BORDEAUX",44.85446,-0.572455
482662533,https://www.pappers.fr/recherche?q=482662533,Non renseigné,"12, B QUAI DES CHARTRONS 33000 BORDEAUX",44.852282,-0.572469
482731031,https://www.pappers.fr/recherche?q=482731031,Non renseigné,112 RUE DU GRAND MAURIAN 33000 BORDEAUX,44.83223,-0.610245
482803970,https://www.pappers.fr/recherche?q=482803970,Non renseigné,28 RUE ALEXANDRE RIBOT 33600 PESSAC,44.80716,-0.655555
483033221,https://www.pappers.fr/recherche?q=483033221,Non renseigné,72 AVENUE DE LABARDE 33300 BORDEAUX,44.862324,-0.566706
483280236,https://www.pappers.fr/recherche?q=483280236,Non renseigné,86 AVENUE DU MEDOC 33320 EYSINES,44.881733,-0.629666
483342267,https://www.pappers.fr/recherche?q=483342267,Non renseigné,50 ROUTE DE LEOGNAN 33140 VILLENAVE-D'ORNON,44.7671,-0.579917
483342267,https://www.pappers.fr/recherche?q=483342267,Non renseigné,63 ROUTE DE LEOGNAN 33140 VILLENAVE-D'ORNON,44.767345,-0.580174
483353512,https://www.pappers.fr/recherche?q=483353512,Non renseigné,234 ROUTE DE TOULOUSE 33130 BEGLES,44.803967,-0.571768
483387510,https://www.pappers.fr/recherche?q=483387510,Non renseigné,ARCACHON,44.651462,-1.173981
483885794,https://www.pappers.fr/recherche?q=483885794,Non renseigné,17 CHEMIN DU PUJOULET 33114 LE BARP,44.581871,-0.726295
484009923,https://www.pappers.fr/recherche?q=484009923,Non renseigné,VAL DE VIRVEE,45.020617,-0.390696
484058334,https://www.pappers.fr/recherche?q=484058334,Non renseigné,APPT 14 49 ALL DU MOULIN 33700 MERIGNAC,44.81599,-0.624676
484100144,https://www.pappers.fr/recherche?q=484100144,Non renseigné,DORAT N 5  APP 402 4 RUE MARCEL CACHIN 33130 BEGLES,44.809667,-0.543943
484157045,https://www.pappers.fr/recherche?q=484157045,Non renseigné,28 ROUTE DE LESPARRE 33340 SAINT-GERMAIN-D'ESTEUIL,45.27684,-0.88938
484288808,https://www.pappers.fr/recherche?q=484288808,Non renseigné,21 ROUTE DES COUREAUX 33240 SAINT-LAURENT-D'ARCE,45.051593,-0.469923
484390745,https://www.pappers.fr/recherche?q=484390745,Non renseigné,10 CHEMIN DES CHAMBRES NEUVES 33290 LUDON-MEDOC,44.972637,-0.616625
484429337,https://www.pappers.fr/recherche?q=484429337,Non renseigné,"70, B COURS DES FOSSES 33210 LANGON",44.554504,-0.246657
484450937,https://www.pappers.fr/recherche?q=484450937,https://hautecoiffurebourgnon-33.fr/,104 AVENUE ALEXIS CAPELLE 33130 BEGLES,44.816093,-0.54867
484522826,https://www.pappers.fr/recherche?q=484522826,Non renseigné,55 RUE THEOPHILE GAUTIER 33110 LE BOUSCAT,44.865096,-0.582026
484522826,https://www.pappers.fr/recherche?q=484522826,Non renseigné,136 AVENUE MARCELIN BERTHELOT 33110 LE BOUSCAT,44.86488,-0.578988
484546999,https://www.pappers.fr/recherche?q=484546999,Non renseigné,LOCAL 21  CTRE COMMERCIAL GRAND TOUR 33560 SAINTE-EULALIE,44.894192,-0.46827
484612445,https://www.pappers.fr/recherche?q=484612445,Non renseigné,"30, T AVENUE SAINTE-MARIE 33470 GUJAN-MESTRAS",44.636166,-1.114904
484644034,https://www.pappers.fr/recherche?q=484644034,Non renseigné,12 ROUTE DE LA LANDE 33360 LIGNAN-DE-BORDEAUX,44.785545,-0.438921
484657986,https://www.pappers.fr/recherche?q=484657986,Non renseigné,4 RUE DES ACACIAS 33560 SAINTE-EULALIE,44.892565,-0.497374
484657994,https://www.pappers.fr/recherche?q=484657994,Non renseigné,SAINT-GERVAIS,43.429859,4.940368
484727532,https://www.pappers.fr/recherche?q=484727532,Non renseigné,21 RUE DU PRESIDENT COTY 33440 AMBARES-ET-LAGRAVE,44.927303,-0.49071
484934534,https://www.pappers.fr/recherche?q=484934534,Non renseigné,13 AVENUE DE LA PLAGE 33740 ARES,44.765622,-1.140567
485047997,https://www.pappers.fr/recherche?q=485047997,Non renseigné,58 RUE MONTAUDON 33500 LIBOURNE,44.908275,-0.243642
485063440,https://www.pappers.fr/recherche?q=485063440,Non renseigné,50 RUE BOUFFARD 33000 BORDEAUX,44.838955,-0.579579
485084776,https://www.pappers.fr/recherche?q=485084776,Non renseigné,8 RESIDENCE CANTELAUDE 33470 LE TEICH,44.629852,-1.033899
487437345,https://www.pappers.fr/recherche?q=487437345,Non renseigné,17 RUE FERNAND HABASQUE 33000 BORDEAUX,44.822258,-0.608386
487470783,https://www.pappers.fr/recherche?q=487470783,Non renseigné,32 RUE DE LA REPUBLIQUE 33220 SAINTE-FOY-LA-GRANDE,44.841641,0.21557
487778995,https://www.pappers.fr/recherche?q=487778995,Non renseigné,4 CRS DU QUATORZE JUILLET 33210 LANGON,44.552481,-0.245879
487816522,https://www.pappers.fr/recherche?q=487816522,Non renseigné,3 RUE ST LEGER 33540 SAUVETERRE-DE-GUYENNE,44.6931,-0.085521
487838765,https://www.pappers.fr/recherche?q=487838765,Non renseigné,14 COURS DU GENERAL DE GAULLE 33390 BLAYE,45.123941,-0.663511
487884082,https://www.pappers.fr/recherche?q=487884082,https://coiffure-kazan-bordeaux.fr/,64 RUE DES TROIS CONILS 33000 BORDEAUX,44.838516,-0.578061
488166604,https://www.pappers.fr/recherche?q=488166604,Non renseigné,17 CHEMIN DES VIGNES 33460 CUSSAC-FORT-MEDOC,45.1207,-0.737104
488220799,https://www.pappers.fr/recherche?q=488220799,https://virginie-d-coiffure.fr/,22 RUE ANDRE OULEY 33700 MERIGNAC,44.842453,-0.659971
488220898,https://www.pappers.fr/recherche?q=488220898,Non renseigné,GUJAN-MESTRAS,44.618065,-1.076924
488268095,https://www.pappers.fr/recherche?q=488268095,Non renseigné,79 RUE DU LOUP 33000 BORDEAUX,44.837868,-0.575387
488268095,https://www.pappers.fr/recherche?q=488268095,Non renseigné,1 RUE WINSTON CHURCHILL 33700 MERIGNAC,44.834625,-0.627459
488419193,https://www.pappers.fr/recherche?q=488419193,Non renseigné,64 RUE DES RETAILLONS 33300 BORDEAUX,44.854958,-0.573044
488583592,https://www.pappers.fr/recherche?q=488583592,Non renseigné,CTRE CIAL 5 LE CLOS DU PIN 33410 BEGUEY,,
488632209,https://www.pappers.fr/recherche?q=488632209,Non renseigné,8 ALLEE DES ROSSIGNOLS 33470 GUJAN-MESTRAS,44.633169,-1.070517
488644782,https://www.pappers.fr/recherche?q=488644782,Non renseigné,38 AVENUE DURAND DASSIER 33290 PAREMPUYRE,44.94771,-0.602264
488666397,https://www.pappers.fr/recherche?q=488666397,Non renseigné,38 AVENUE DURAND DASSIER 33290 PAREMPUYRE,44.94771,-0.602264
488832502,https://www.pappers.fr/recherche?q=488832502,Non renseigné,38 ROUTE DE LATRESNE 33360 CARIGNAN-DE-BORDEAUX,44.80876,-0.478867
488877309,https://www.pappers.fr/recherche?q=488877309,Non renseigné,GUJAN-MESTRAS,44.618065,-1.076924
488999632,https://www.pappers.fr/recherche?q=488999632,Non renseigné,LD LE FOURNAS 2 CHEMIN DU HA 33250 SAINT-SAUVEUR,45.191993,-0.802343
489032326,https://www.pappers.fr/recherche?q=489032326,Non renseigné,11 PLACE KENNEDY 33210 LANGON,44.552788,-0.249076
489136135,https://www.pappers.fr/recherche?q=489136135,Non renseigné,165 BOULEVARD DE LA REPUBLIQUE 33510 ANDERNOS-LES-BAINS,44.742805,-1.100115
489189068,https://www.pappers.fr/recherche?q=489189068,Non renseigné,10 RUE DES PINS MARITIMES 33260 LA TESTE-DE-BUCH,44.626436,-1.128606
489299891,https://www.pappers.fr/recherche?q=489299891,Non renseigné,8 CHEMIN DE VIMENEY 33270 BOULIAC,44.820236,-0.515962
489330944,https://www.pappers.fr/recherche?q=489330944,Non renseigné,10 ZI LES PLATANES 33360 CAMBLANES-ET-MEYNAC,44.768918,-0.447087
489436527,https://www.pappers.fr/recherche?q=489436527,Non renseigné,6 RUE BARENNES 33000 BORDEAUX,44.85163,-0.578664
489716241,https://www.pappers.fr/recherche?q=489716241,Non renseigné,17 RUE GEORGES CLEMENCEAU 33250 PAUILLAC,45.197985,-0.749218
489716290,https://www.pappers.fr/recherche?q=489716290,Non renseigné,15 PASSAGE DU GRAIN 33240 SAINT-ANDRE-DE-CUBZAC,44.996789,-0.450887
489735167,https://www.pappers.fr/recherche?q=489735167,Non renseigné,120 RUE DE LA CHAPELLE 33390 EYRANS,45.202439,-0.598982
489765909,https://www.pappers.fr/recherche?q=489765909,Non renseigné,12 ROUTE DE CASTETS 33124 AUROS,44.495129,-0.144674
489796474,https://www.pappers.fr/recherche?q=489796474,Non renseigné,6 AVENUE MARCELIN BERTHELOT 33110 LE BOUSCAT,44.864246,-0.586769
489816637,https://www.pappers.fr/recherche?q=489816637,Non renseigné,RUE DU GENERAL GALLIENI 33260 LA TESTE-DE-BUCH,44.631133,-1.149297
490119609,https://www.pappers.fr/recherche?q=490119609,Non renseigné,1 RUE SAUMENUDE 33800 BORDEAUX,44.831825,-0.566658
490306875,https://www.pappers.fr/recherche?q=490306875,Non renseigné,20 CHEMIN DU PAS DU COURAUD 33650 SAINT-SELVE,44.675597,-0.478396
490425592,https://www.pappers.fr/recherche?q=490425592,Non renseigné,52 CHEMIN DE MARCHEMAL 33350 DOULEZON,44.79855,-0.010691
490434370,https://www.pappers.fr/recherche?q=490434370,Non renseigné,24 RUE JEAN-LOUIS BARRAULT 33310 LORMONT,44.874428,-0.502232
490469376,https://www.pappers.fr/recherche?q=490469376,Non renseigné,138 AVENUE MONTAIGNE 33160 SAINT-MEDARD-EN-JALLES,44.89289,-0.710869
490474236,https://www.pappers.fr/recherche?q=490474236,Non renseigné,38 ROUTE DES LACS 33470 GUJAN-MESTRAS,44.634987,-1.111201
490488103,https://www.pappers.fr/recherche?q=490488103,Non renseigné,"50, B AVENUE DE LA LIBERTE 33440 AMBARES-ET-LAGRAVE",44.936523,-0.4937
490763471,https://www.pappers.fr/recherche?q=490763471,Non renseigné,"44, B AVENUE DE LA LIBERATION 33380 BIGANOS",44.641236,-0.971526
490859212,https://www.pappers.fr/recherche?q=490859212,Non renseigné,1080 RTE DE TOULOUSE 33140 CADAUJAC,44.750107,-0.547865
490955754,https://www.pappers.fr/recherche?q=490955754,Non renseigné,97 AVENUE DU MEDOC 33320 EYSINES,44.887379,-0.644701
491085882,https://www.pappers.fr/recherche?q=491085882,Non renseigné,ALLEE ORTAL 33680 LACANAU,45.001428,-1.200421
491173159,https://www.pappers.fr/recherche?q=491173159,Non renseigné,45 RUE CAZEAUX-CAZALET 33410 CADILLAC-SUR-GARONNE,44.636575,-0.319449
491551370,https://www.pappers.fr/recherche?q=491551370,https://coiffeur-merignac.fr/,4 AVENUE VICTOR HUGO 33700 MERIGNAC,44.824455,-0.624328
491837167,https://www.pappers.fr/recherche?q=491837167,Non renseigné,3 RUE JEAN GIRAUDOUX 33270 FLOIRAC,44.846138,-0.504352
491948030,https://www.pappers.fr/recherche?q=491948030,https://flawless.fr/,2 RUE DE MARMANDE 33800 BORDEAUX,44.820087,-0.572613
492028378,https://www.pappers.fr/recherche?q=492028378,Non renseigné,24 COURS GEORGES CLEMENCEAU 33240 SAINT-ANDRE-DE-CUBZAC,44.995058,-0.445679
492070263,https://www.pappers.fr/recherche?q=492070263,https://l-atelier-d-aurore.fr/,FLOIRAC,44.83245,-0.521121
492092168,https://www.pappers.fr/recherche?q=492092168,Non renseigné,4 ROUTE DE BORDEAUX 33125 HOSTENS,44.493086,-0.639506
492124987,https://www.pappers.fr/recherche?q=492124987,Non renseigné,1 AVENUE DE L'EUROPE 33290 LUDON-MEDOC,,
492258462,https://www.pappers.fr/recherche?q=492258462,Non renseigné,18 LD LE BOURG 33720 SAINT-MICHEL-DE-RIEUFRET,44.622005,-0.431798
492481460,https://www.pappers.fr/recherche?q=492481460,Non renseigné,12 TUCOT 33190 CASSEUIL,44.592184,-0.119172
492486824,https://www.pappers.fr/recherche?q=492486824,Non renseigné,3 ROUTE DE SAINT-CAPRAIS 33670 SADIRAC,44.780755,-0.411063
492487012,https://www.pappers.fr/recherche?q=492487012,Non renseigné,CTRE CIAL PALMER 6 RUE DU DOCTEUR SCHWEITZER 33150 CENON,44.861782,-0.520368
492504873,https://www.pappers.fr/recherche?q=492504873,Non renseigné,2 AVENUE DE BORDEAUX 33510 ANDERNOS-LES-BAINS,44.742138,-1.098184
492573738,https://www.pappers.fr/recherche?q=492573738,Non renseigné,2 PLACE DU GENERAL DE GAULLE 33460 CUSSAC-FORT-MEDOC,45.112962,-0.729876
492762679,https://www.pappers.fr/recherche?q=492762679,Non renseigné,29 CHEMIN DE LA BAYCHE 33850 LEOGNAN,44.726627,-0.627528
492819065,https://www.pappers.fr/recherche?q=492819065,https://imperatif.net/,9 PLACE DE LA MAIRIE 33770 SALLES,44.542874,-0.917014
492859251,https://www.pappers.fr/recherche?q=492859251,Non renseigné,43 RUE LOUIS PASTEUR 33220 SAINTE-FOY-LA-GRANDE,,
493032387,https://www.pappers.fr/recherche?q=493032387,Non renseigné,41 RUE MARC TALLAVI 33310 LORMONT,44.878445,-0.525559
493032395,https://www.pappers.fr/recherche?q=493032395,https://enhairgycoiffure.com/,AMBARES-ET-LAGRAVE,44.938277,-0.491384
493099824,https://www.pappers.fr/recherche?q=493099824,Non renseigné,RES LES GAROSSES LOGT 5830 PORTE 15  RUE GERARD DE NERVAL 33310 LORMONT,44.876677,-0.516472
493143663,https://www.pappers.fr/recherche?q=493143663,Non renseigné,375 RUE DE BEGLES 33800 BORDEAUX,44.813965,-0.564893
493212443,https://www.pappers.fr/recherche?q=493212443,https://dkoiffeur.fr/,114 AVENUE MONTESQUIEU 33160 SAINT-MEDARD-EN-JALLES,44.89551,-0.720104
493261994,https://www.pappers.fr/recherche?q=493261994,Non renseigné,2 ROUTE DE BORDEAUX 33980 AUDENGE,44.681841,-1.012603
493333090,https://www.pappers.fr/recherche?q=493333090,https://leboudoirdesophie.fr/,14 RUE SICARD 33000 BORDEAUX,44.852245,-0.5731
493759732,https://www.pappers.fr/recherche?q=493759732,https://est-hair-coiffure.com/,30 RUE DOCTEUR CHARLES NANCEL PENARD 33000 BORDEAUX,44.839428,-0.581345
493763353,https://www.pappers.fr/recherche?q=493763353,Non renseigné,24 RUE DU CAP HORN 33700 MERIGNAC,44.85743,-0.654121
493841043,https://www.pappers.fr/recherche?q=493841043,Non renseigné,"11, B LD BELOU 33620 SAINT-MARIENS",45.118994,-0.383285
493841092,https://www.pappers.fr/recherche?q=493841092,Non renseigné,5 ALLEE DE LA GARENNE DAULET 33610 CANEJAN,44.769861,-0.653106
493951156,https://www.pappers.fr/recherche?q=493951156,Non renseigné,13 RUE VICTOR HUGO 33260 LA TESTE-DE-BUCH,44.632728,-1.148049
494090210,https://www.pappers.fr/recherche?q=494090210,https://le-salon-damandine.fr/,73 AVENUE CHARLES DE GAULLE 33520 BRUGES,44.880524,-0.613595
494172794,https://www.pappers.fr/recherche?q=494172794,Non renseigné,RES LE CAPITAINE 12 RUE JOSEPH LE BRIX 33000 BORDEAUX,44.83089,-0.613056
494504707,https://www.pappers.fr/recherche?q=494504707,Non renseigné,AUDENGE,44.6981,-0.96155
494519929,https://www.pappers.fr/recherche?q=494519929,Non renseigné,23 AVENUE DU GRAND VENEUR 33370 ARTIGUES-PRES-BORDEAUX,44.873363,-0.498738
494532930,https://www.pappers.fr/recherche?q=494532930,Non renseigné,197 RUE GEORGES BONNAC 33000 BORDEAUX,44.838284,-0.590876
494742505,https://www.pappers.fr/recherche?q=494742505,Non renseigné,125 RUE JULES FERRY 33200 BORDEAUX,44.84378,-0.608376
494800410,https://www.pappers.fr/recherche?q=494800410,Non renseigné,RES VAL D EAU BOURDE LGT 157 BAT K  AVENUE EDOUARD BOURLAUX 33140 VILLENAVE-D'ORNON,44.786274,-0.572565
494960545,https://www.pappers.fr/recherche?q=494960545,Non renseigné,LE CLOS DES CHENES 6 ALLEE JOACHIM DU BELLAY 33270 BOULIAC,44.823357,-0.483191
494960560,https://www.pappers.fr/recherche?q=494960560,https://adomicilecoiffure.jimdo.com/,36 RUE DE LA GRAVETTE 33620 CUBNEZAIS,45.066001,-0.406972
494989171,https://www.pappers.fr/recherche?q=494989171,Non renseigné,45 COURS MARECHAL JUIN 33000 BORDEAUX,44.836155,-0.583841
495067084,https://www.pappers.fr/recherche?q=495067084,Non renseigné,21 RUE DE LA HAUTE LANDE 33770 SALLES,44.550513,-0.870831
495067092,https://www.pappers.fr/recherche?q=495067092,Non renseigné,22 AVENUE DE LA REPUBLIQUE 33820 BRAUD-ET-SAINT-LOUIS,45.247386,-0.62597
495264939,https://www.pappers.fr/recherche?q=495264939,Non renseigné,2 CHEMIN DE LA PALUE DE LA BLANCHE 33440 AMBARES-ET-LAGRAVE,44.94264,-0.510924
495288219,https://www.pappers.fr/recherche?q=495288219,Non renseigné,112 AVENUE CHARLES DE GAULLE 33260 LA TESTE-DE-BUCH,44.637151,-1.127192
495293144,https://www.pappers.fr/recherche?q=495293144,Non renseigné,2 PLACE DE L'EGLISE 33840 CAPTIEUX,44.292429,-0.261106
495382889,https://www.pappers.fr/recherche?q=495382889,https://salon4emegeneration.fr/,3 COURS LAMARQUE DE PLAISANCE 33120 ARCACHON,44.660964,-1.168738
497516740,https://www.pappers.fr/recherche?q=497516740,Non renseigné,7 RUE FRANCOIS XAVIER 33520 BRUGES,44.874653,-0.61563
497516765,https://www.pappers.fr/recherche?q=497516765,Non renseigné,8 RUE DU HAUT-BAILLY 33850 LEOGNAN,44.727777,-0.588632
497788380,https://www.pappers.fr/recherche?q=497788380,Non renseigné,5 AVENUE JEAN JAURES 33600 PESSAC,44.806305,-0.630367
497823328,https://www.pappers.fr/recherche?q=497823328,Non renseigné,6 LOTISSEMENT LA PINEDE 33650 SAUCATS,44.657435,-0.597967
497823336,https://www.pappers.fr/recherche?q=497823336,Non renseigné,6 MOULIN DE MAUREY 33540 CLEYRAC,44.721684,-0.03881
497823377,https://www.pappers.fr/recherche?q=497823377,Non renseigné,32 RUE DE VINCENNES 33210 TOULENNE,44.557803,-0.267355
497897900,https://www.pappers.fr/recherche?q=497897900,Non renseigné,GRADIGNAN,44.7691,-0.616651
497949800,https://www.pappers.fr/recherche?q=497949800,Non renseigné,LOT L'AIRIAL DES CHANTERELLES 8 ALLEE DES MORILLES 33650 SAINT-SELVE,44.681027,-0.485025
497980573,https://www.pappers.fr/recherche?q=497980573,Non renseigné,46 RUE DES MARNIERES 33290 BLANQUEFORT,44.93691,-0.645695
497980854,https://www.pappers.fr/recherche?q=497980854,Non renseigné,GRADIGNAN,44.7691,-0.616651
498078120,https://www.pappers.fr/recherche?q=498078120,Non renseigné,309 RUE JEAN GIONO 33290 LE PIAN-MEDOC,44.955632,-0.655574
498260835,https://www.pappers.fr/recherche?q=498260835,Non renseigné,66 ROUTE DU BARP 33380 MIOS,44.673782,-0.836405
498396993,https://www.pappers.fr/recherche?q=498396993,https://lhairnuance.fr/,325 COURS DU GENERAL DE GAULLE 33170 GRADIGNAN,44.75878,-0.624514
498397025,https://www.pappers.fr/recherche?q=498397025,Non renseigné,"3, T PLACE DE LA LIBERATION 33730 PRECHAC",44.397786,-0.352957
498500909,https://www.pappers.fr/recherche?q=498500909,Non renseigné,16 CHEMIN DE BRAOUET 33260 LA TESTE-DE-BUCH,44.628386,-1.153408
498576404,https://www.pappers.fr/recherche?q=498576404,Non renseigné,LD LES POUGES 33220 SAINT-AVIT-SAINT-NAZAIRE,44.844082,0.257669
498602283,https://www.pappers.fr/recherche?q=498602283,Non renseigné,MIOS,44.623515,-0.902244
498728963,https://www.pappers.fr/recherche?q=498728963,Non renseigné,15 PLACE FERNAND LAFARGUE 33000 BORDEAUX,44.837173,-0.57207
498730134,https://www.pappers.fr/recherche?q=498730134,Non renseigné,1 CHE PIERRE GIRARD 33540 BLASIMON,44.749282,-0.072741
498878271,https://www.pappers.fr/recherche?q=498878271,Non renseigné,106 AVENUE DE LA GARONNE -RD 10 33440 SAINT-LOUIS-DE-MONTFERRAND,44.951942,-0.534703
498896646,https://www.pappers.fr/recherche?q=498896646,Non renseigné,44 RUE SAINT SERNIN 33000 BORDEAUX,44.840954,-0.582416
498900398,https://www.pappers.fr/recherche?q=498900398,Non renseigné,LE CLOS MANON 25 AVENUE GEORGES CLEMENCEAU 33150 CENON,44.8502,-0.509491
498900398,https://www.pappers.fr/recherche?q=498900398,Non renseigné,22 COURS MARECHAL GALLIENI 33400 TALENCE,44.824768,-0.590259
498989359,https://www.pappers.fr/recherche?q=498989359,Non renseigné,27 RUE CHABRELY 33100 BORDEAUX,44.84144,-0.554951
499015246,https://www.pappers.fr/recherche?q=499015246,Non renseigné,"LES ARGENTIERES 3, B CHEMIN DES ECUREUILS 33380 BIGANOS",44.667379,-0.902601
499015253,https://www.pappers.fr/recherche?q=499015253,Non renseigné,35 AV DE LA GARE 33460 MARGAUX-CANTENAC,45.036534,-0.685239
499030443,https://www.pappers.fr/recherche?q=499030443,Non renseigné,LE HAILLAN,44.869429,-0.690404
499273233,https://www.pappers.fr/recherche?q=499273233,Non renseigné,405 AVENUE D'EYSINES 33110 LE BOUSCAT,44.863346,-0.618309
499385607,https://www.pappers.fr/recherche?q=499385607,Non renseigné,62 RUE DE BONIN 33620 CAVIGNAC,45.097662,-0.389735
499420057,https://www.pappers.fr/recherche?q=499420057,Non renseigné,LE HAMEAU DU CHATEAU 29 RUE DE LA TOUR 33320 EYSINES,44.87871,-0.654796
499461127,https://www.pappers.fr/recherche?q=499461127,Non renseigné,160 RESIDENCE LE PINTEY 33500 LIBOURNE,44.933886,-0.240821
499461168,https://www.pappers.fr/recherche?q=499461168,Non renseigné,57 AVENUE JEAN MARCEL DESPAGNE 33510 ANDERNOS-LES-BAINS,44.749312,-1.09778
499474534,https://www.pappers.fr/recherche?q=499474534,https://valerie-raynaud.fr/,RES LA GRAVIERE 2 CHEMIN DE LA GRAVIERE 33185 LE HAILLAN,44.884138,-0.677543
499483337,https://www.pappers.fr/recherche?q=499483337,Non renseigné,"24, T RUE GEORGES POMPIDOU 33230 COUTRAS",45.037193,-0.124599
499559953,https://www.pappers.fr/recherche?q=499559953,Non renseigné,5 ROUTE DE GOUAS 33390 CARTELEGUE,45.184658,-0.578229
499627040,https://www.pappers.fr/recherche?q=499627040,Non renseigné,193 COURS DE LA MARNE 33800 BORDEAUX,44.82814,-0.560935
499876712,https://www.pappers.fr/recherche?q=499876712,Non renseigné,15 RUE DU PONT 33410 CADILLAC-SUR-GARONNE,44.636725,-0.32183
499949725,https://www.pappers.fr/recherche?q=499949725,Non renseigné,CTRE CIAL INTERMARCHE 17 RUE DE LA FONTAINE 33240 SAINT-ANDRE-DE-CUBZAC,44.99633,-0.439585
499949824,https://www.pappers.fr/recherche?q=499949824,Non renseigné,3 RUE LEO FERRE 33240 SAINT-ANDRE-DE-CUBZAC,44.98777,-0.454174
499974020,https://www.pappers.fr/recherche?q=499974020,Non renseigné,BAT A PORTE 3 38 AVENUE DE LA GARE 33950 LEGE-CAP-FERRET,44.795696,-1.139891
500114319,https://www.pappers.fr/recherche?q=500114319,Non renseigné,1840 ROUTE ROYALE 33240 LA LANDE-DE-FRONSAC,44.982791,-0.384293
500420674,https://www.pappers.fr/recherche?q=500420674,Non renseigné,7 RUE DU VIEUX CHENE 33185 LE HAILLAN,44.883904,-0.679987
500673389,https://www.pappers.fr/recherche?q=500673389,Non renseigné,"102, T ALL DE HAURAT 33470 GUJAN MESTRAS",44.632179,-1.053804
500732839,https://www.pappers.fr/recherche?q=500732839,Non renseigné,MIOS,44.623515,-0.902244
500742010,https://www.pappers.fr/recherche?q=500742010,Non renseigné,"88, D AVENUE DU GENERAL DE GAULLE 33190 GIRONDE-SUR-DROPT",44.584914,-0.086331
500826334,https://www.pappers.fr/recherche?q=500826334,Non renseigné,279 RUE SAINTE-CATHERINE 33000 BORDEAUX,44.831604,-0.572882
501012595,https://www.pappers.fr/recherche?q=501012595,Non renseigné,381 CHEMIN DE BETTET 33420 GENISSAC,44.859855,-0.246819
501258842,https://www.pappers.fr/recherche?q=501258842,Non renseigné,"3, B COURS GAMBETTA 33113 SAINT-SYMPHORIEN",44.42838,-0.489873
501263859,https://www.pappers.fr/recherche?q=501263859,Non renseigné,"2, B PLACE DE VERDUN 33360 CAMBLANES-ET-MEYNAC",44.765093,-0.488183
